[
  {
    "id": "01014002",
    "id_station": "01014002",
    "id_omm": "",
    "name": "ARBENT",
    "nom_usuel": "ARBENT",
    "lat": 46.278167,
    "lon": 5.669,
    "elev": 534.0,
    "altitude": 534.0,
    "date_ouverture": "2003-10-01",
    "pack": "RADOME",
    "provider": "METEOFRANCE",
    "source": "Meteo-France DPObs /liste-stations",
    "raw": {
      "Id_station": "01014002",
      "Id_omm": "",
      "Nom_usuel": "ARBENT",
      "Latitude": "46.278167",
      "Longitude": "5.669000",
      "Altitude": "534",
      "Date_ouverture": "2003-10-01",
      "Pack": "RADOME"
    }
  },
  {
    "id": "01027003",
    "id_station": "01027003",
    "id_omm": "",
    "name": "BALAN_AERO",
    "nom_usuel": "BALAN_AERO",
    "lat": 45.833,
    "lon": 5.106667,
    "elev": 196.0,
    "altitude": 196.0,
    "date_ouverture": "2014-05-26",
    "pack": "ETENDU",
    "provider": "METEOFRANCE",
    "source": "Meteo-France DPObs /liste-stations",
    "raw": {
      "Id_station": "01027003",
      "Id_omm": "",
      "Nom_usuel": "BALAN_AERO",
      "Latitude": "45.833000",
      "Longitude": "5.106667",
      "Altitude": "196",
      "Date_ouverture": "2014-05-26",
      "Pack": "ETENDU"
    }
  },
  {
    "id": "01034004",
    "id_station": "01034004",
    "id_omm": "",
    "name": "BELLEY",
    "nom_usuel": "BELLEY",
    "lat": 45.769333,
    "lon": 5.688,
    "elev": 330.0,
    "altitude": 330.0,
    "date_ouverture": "2001-09-13",
    "pack": "RADOME",
    "provider": "METEOFRANCE",
    "source": "Meteo-France DPObs /liste-stations",
    "raw": {
      "Id_station": "01034004",
      "Id_omm": "",
      "Nom_usuel": "BELLEY",
      "Latitude": "45.769333",
      "Longitude": "5.688000",
      "Altitude": "330",
      "Date_ouverture": "2001-09-13",
      "Pack": "RADOME"
    }
  },
  {
    "id": "01064001",
    "id_station": "01064001",
    "id_omm": "",
    "name": "VERIZIEU",
    "nom_usuel": "VERIZIEU",
    "lat": 45.777167,
    "lon": 5.487167,
    "elev": 281.0,
    "altitude": 281.0,
    "date_ouverture": "2015-01-01",
    "pack": "ETENDU",
    "provider": "METEOFRANCE",
    "source": "Meteo-France DPObs /liste-stations",
    "raw": {
      "Id_station": "01064001",
      "Id_omm": "",
      "Nom_usuel": "VERIZIEU",
      "Latitude": "45.777167",
      "Longitude": "5.487167",
      "Altitude": "281",
      "Date_ouverture": "2015-01-01",
      "Pack": "ETENDU"
    }
  },
  {
    "id": "01071001",
    "id_station": "01071001",
    "id_omm": "",
    "name": "CESSY",
    "nom_usuel": "CESSY",
    "lat": 46.310333,
    "lon": 6.080333,
    "elev": 507.0,
    "altitude": 507.0,
    "date_ouverture": "2002-05-01",
    "pack": "RADOME",
    "provider": "METEOFRANCE",
    "source": "Meteo-France DPObs /liste-stations",
    "raw": {
      "Id_station": "01071001",
      "Id_omm": "",
      "Nom_usuel": "CESSY",
      "Latitude": "46.310333",
      "Longitude": "6.080333",
      "Altitude": "507",
      "Date_ouverture": "2002-05-01",
      "Pack": "RADOME"
    }
  },
  {
    "id": "01072001",
    "id_station": "01072001",
    "id_omm": "",
    "name": "CEYZERIAT_SAPC",
    "nom_usuel": "CEYZERIAT_SAPC",
    "lat": 46.204333,
    "lon": 5.287667,
    "elev": 260.0,
    "altitude": 260.0,
    "date_ouverture": "1994-08-01",
    "pack": "ETENDU",
    "provider": "METEOFRANCE",
    "source": "Meteo-France DPObs /liste-stations",
    "raw": {
      "Id_station": "01072001",
      "Id_omm": "",
      "Nom_usuel": "CEYZERIAT_SAPC",
      "Latitude": "46.204333",
      "Longitude": "5.287667",
      "Altitude": "260",
      "Date_ouverture": "1994-08-01",
      "Pack": "ETENDU"
    }
  },
  {
    "id": "01089001",
    "id_station": "01089001",
    "id_omm": "07482",
    "name": "AMBERIEU",
    "nom_usuel": "AMBERIEU",
    "lat": 45.9765,
    "lon": 5.329333,
    "elev": 250.0,
    "altitude": 250.0,
    "date_ouverture": "1934-03-01",
    "pack": "RADOME",
    "provider": "METEOFRANCE",
    "source": "Meteo-France DPObs /liste-stations",
    "raw": {
      "Id_station": "01089001",
      "Id_omm": "07482",
      "Nom_usuel": "AMBERIEU",
      "Latitude": "45.976500",
      "Longitude": "5.329333",
      "Altitude": "250",
      "Date_ouverture": "1934-03-01",
      "Pack": "RADOME"
    }
  },
  {
    "id": "01143002",
    "id_station": "01143002",
    "id_omm": "",
    "name": "DIVONNE ZA",
    "nom_usuel": "DIVONNE ZA",
    "lat": 46.3415,
    "lon": 6.139667,
    "elev": 467.0,
    "altitude": 467.0,
    "date_ouverture": "2003-10-01",
    "pack": "ETENDU",
    "provider": "METEOFRANCE",
    "source": "Meteo-France DPObs /liste-stations",
    "raw": {
      "Id_station": "01143002",
      "Id_omm": "",
      "Nom_usuel": "DIVONNE ZA",
      "Latitude": "46.341500",
      "Longitude": "6.139667",
      "Altitude": "467",
      "Date_ouverture": "2003-10-01",
      "Pack": "ETENDU"
    }
  },
  {
    "id": "01200002",
    "id_station": "01200002",
    "id_omm": "",
    "name": "LA BALME SUR CERDON_SAPC",
    "nom_usuel": "LA BALME SUR CERDON_SAPC",
    "lat": 46.09,
    "lon": 5.482,
    "elev": 596.0,
    "altitude": 596.0,
    "date_ouverture": "2004-12-01",
    "pack": "ETENDU",
    "provider": "METEOFRANCE",
    "source": "Meteo-France DPObs /liste-stations",
    "raw": {
      "Id_station": "01200002",
      "Id_omm": "",
      "Nom_usuel": "LA BALME SUR CERDON_SAPC",
      "Latitude": "46.090000",
      "Longitude": "5.482000",
      "Altitude": "596",
      "Date_ouverture": "2004-12-01",
      "Pack": "ETENDU"
    }
  },
  {
    "id": "01235001",
    "id_station": "01235001",
    "id_omm": "",
    "name": "MARLIEUX",
    "nom_usuel": "MARLIEUX",
    "lat": 46.0385,
    "lon": 5.044333,
    "elev": 280.0,
    "altitude": 280.0,
    "date_ouverture": "1956-01-01",
    "pack": "ETENDU",
    "provider": "METEOFRANCE",
    "source": "Meteo-France DPObs /liste-stations",
    "raw": {
      "Id_station": "01235001",
      "Id_omm": "",
      "Nom_usuel": "MARLIEUX",
      "Latitude": "46.038500",
      "Longitude": "5.044333",
      "Altitude": "280",
      "Date_ouverture": "1956-01-01",
      "Pack": "ETENDU"
    }
  },
  {
    "id": "01247003",
    "id_station": "01247003",
    "id_omm": "",
    "name": "MIJOUX",
    "nom_usuel": "MIJOUX",
    "lat": 46.378833,
    "lon": 6.019333,
    "elev": 1002.0,
    "altitude": 1002.0,
    "date_ouverture": "1929-01-01",
    "pack": "ETENDU",
    "provider": "METEOFRANCE",
    "source": "Meteo-France DPObs /liste-stations",
    "raw": {
      "Id_station": "01247003",
      "Id_omm": "",
      "Nom_usuel": "MIJOUX",
      "Latitude": "46.378833",
      "Longitude": "6.019333",
      "Altitude": "1002",
      "Date_ouverture": "1929-01-01",
      "Pack": "ETENDU"
    }
  },
  {
    "id": "01269001",
    "id_station": "01269001",
    "id_omm": "",
    "name": "NANTUA",
    "nom_usuel": "NANTUA",
    "lat": 46.148167,
    "lon": 5.607333,
    "elev": 483.0,
    "altitude": 483.0,
    "date_ouverture": "1852-01-01",
    "pack": "ETENDU",
    "provider": "METEOFRANCE",
    "source": "Meteo-France DPObs /liste-stations",
    "raw": {
      "Id_station": "01269001",
      "Id_omm": "",
      "Nom_usuel": "NANTUA",
      "Latitude": "46.148167",
      "Longitude": "5.607333",
      "Altitude": "483",
      "Date_ouverture": "1852-01-01",
      "Pack": "ETENDU"
    }
  },
  {
    "id": "01367002",
    "id_station": "01367002",
    "id_omm": "",
    "name": "SAINT JULIEN SUR REYSSOUZE",
    "nom_usuel": "SAINT JULIEN SUR REYSSOUZE",
    "lat": 46.403167,
    "lon": 5.109833,
    "elev": 189.0,
    "altitude": 189.0,
    "date_ouverture": "1990-02-01",
    "pack": "ETENDU",
    "provider": "METEOFRANCE",
    "source": "Meteo-France DPObs /liste-stations",
    "raw": {
      "Id_station": "01367002",
      "Id_omm": "",
      "Nom_usuel": "SAINT JULIEN SUR REYSSOUZE",
      "Latitude": "46.403167",
      "Longitude": "5.109833",
      "Altitude": "189",
      "Date_ouverture": "1990-02-01",
      "Pack": "ETENDU"
    }
  },
  {
    "id": "01384003",
    "id_station": "01384003",
    "id_omm": "",
    "name": "ST RAMBERT CG01",
    "nom_usuel": "ST RAMBERT CG01",
    "lat": 45.950333,
    "lon": 5.461,
    "elev": 296.0,
    "altitude": 296.0,
    "date_ouverture": "2001-12-01",
    "pack": "ETENDU",
    "provider": "METEOFRANCE",
    "source": "Meteo-France DPObs /liste-stations",
    "raw": {
      "Id_station": "01384003",
      "Id_omm": "",
      "Nom_usuel": "ST RAMBERT CG01",
      "Latitude": "45.950333",
      "Longitude": "5.461000",
      "Altitude": "296",
      "Date_ouverture": "2001-12-01",
      "Pack": "ETENDU"
    }
  },
  {
    "id": "01414001",
    "id_station": "01414001",
    "id_omm": "",
    "name": "SUTRIEU",
    "nom_usuel": "SUTRIEU",
    "lat": 45.916167,
    "lon": 5.624667,
    "elev": 878.0,
    "altitude": 878.0,
    "date_ouverture": "2002-09-01",
    "pack": "RADOME",
    "provider": "METEOFRANCE",
    "source": "Meteo-France DPObs /liste-stations",
    "raw": {
      "Id_station": "01414001",
      "Id_omm": "",
      "Nom_usuel": "SUTRIEU",
      "Latitude": "45.916167",
      "Longitude": "5.624667",
      "Altitude": "878",
      "Date_ouverture": "2002-09-01",
      "Pack": "RADOME"
    }
  },
  {
    "id": "02037002",
    "id_station": "02037002",
    "id_omm": "",
    "name": "AULNOIS-SS-LAON",
    "nom_usuel": "AULNOIS-SS-LAON",
    "lat": 49.595667,
    "lon": 3.610333,
    "elev": 78.0,
    "altitude": 78.0,
    "date_ouverture": "1988-10-01",
    "pack": "RADOME",
    "provider": "METEOFRANCE",
    "source": "Meteo-France DPObs /liste-stations",
    "raw": {
      "Id_station": "02037002",
      "Id_omm": "",
      "Nom_usuel": "AULNOIS-SS-LAON",
      "Latitude": "49.595667",
      "Longitude": "3.610333",
      "Altitude": "78",
      "Date_ouverture": "1988-10-01",
      "Pack": "RADOME"
    }
  },
  {
    "id": "02058001",
    "id_station": "02058001",
    "id_omm": "",
    "name": "BEAURIEUX",
    "nom_usuel": "BEAURIEUX",
    "lat": 49.390333,
    "lon": 3.732667,
    "elev": 56.0,
    "altitude": 56.0,
    "date_ouverture": "1949-12-01",
    "pack": "ETENDU",
    "provider": "METEOFRANCE",
    "source": "Meteo-France DPObs /liste-stations",
    "raw": {
      "Id_station": "02058001",
      "Id_omm": "",
      "Nom_usuel": "BEAURIEUX",
      "Latitude": "49.390333",
      "Longitude": "3.732667",
      "Altitude": "56",
      "Date_ouverture": "1949-12-01",
      "Pack": "ETENDU"
    }
  },
  {
    "id": "02077001",
    "id_station": "02077001",
    "id_omm": "",
    "name": "BERZY-LE-SEC",
    "nom_usuel": "BERZY-LE-SEC",
    "lat": 49.305,
    "lon": 3.284333,
    "elev": 147.0,
    "altitude": 147.0,
    "date_ouverture": "2023-04-03",
    "pack": "ETENDU",
    "provider": "METEOFRANCE",
    "source": "Meteo-France DPObs /liste-stations",
    "raw": {
      "Id_station": "02077001",
      "Id_omm": "",
      "Nom_usuel": "BERZY-LE-SEC",
      "Latitude": "49.305000",
      "Longitude": "3.284333",
      "Altitude": "147",
      "Date_ouverture": "2023-04-03",
      "Pack": "ETENDU"
    }
  },
  {
    "id": "02094001",
    "id_station": "02094001",
    "id_omm": "",
    "name": "BLESMES",
    "nom_usuel": "BLESMES",
    "lat": 49.009667,
    "lon": 3.462667,
    "elev": 222.0,
    "altitude": 222.0,
    "date_ouverture": "1985-12-01",
    "pack": "RADOME",
    "provider": "METEOFRANCE",
    "source": "Meteo-France DPObs /liste-stations",
    "raw": {
      "Id_station": "02094001",
      "Id_omm": "",
      "Nom_usuel": "BLESMES",
      "Latitude": "49.009667",
      "Longitude": "3.462667",
      "Altitude": "222",
      "Date_ouverture": "1985-12-01",
      "Pack": "RADOME"
    }
  },
  {
    "id": "02110002",
    "id_station": "02110002",
    "id_omm": "",
    "name": "BRAINE",
    "nom_usuel": "BRAINE",
    "lat": 49.351333,
    "lon": 3.527,
    "elev": 61.0,
    "altitude": 61.0,
    "date_ouverture": "1988-08-01",
    "pack": "RADOME",
    "provider": "METEOFRANCE",
    "source": "Meteo-France DPObs /liste-stations",
    "raw": {
      "Id_station": "02110002",
      "Id_omm": "",
      "Nom_usuel": "BRAINE",
      "Latitude": "49.351333",
      "Longitude": "3.527000",
      "Altitude": "61",
      "Date_ouverture": "1988-08-01",
      "Pack": "RADOME"
    }
  },
  {
    "id": "02173002",
    "id_station": "02173002",
    "id_omm": "",
    "name": "CHAUNY",
    "nom_usuel": "CHAUNY",
    "lat": 49.633833,
    "lon": 3.197833,
    "elev": 83.0,
    "altitude": 83.0,
    "date_ouverture": "1988-07-01",
    "pack": "RADOME",
    "provider": "METEOFRANCE",
    "source": "Meteo-France DPObs /liste-stations",
    "raw": {
      "Id_station": "02173002",
      "Id_omm": "",
      "Nom_usuel": "CHAUNY",
      "Latitude": "49.633833",
      "Longitude": "3.197833",
      "Altitude": "83",
      "Date_ouverture": "1988-07-01",
      "Pack": "RADOME"
    }
  },
  {
    "id": "02320001",
    "id_station": "02320001",
    "id_omm": "07061",
    "name": "ST QUENTIN",
    "nom_usuel": "ST QUENTIN",
    "lat": 49.818333,
    "lon": 3.206,
    "elev": 98.0,
    "altitude": 98.0,
    "date_ouverture": "1933-01-01",
    "pack": "RADOME",
    "provider": "METEOFRANCE",
    "source": "Meteo-France DPObs /liste-stations",
    "raw": {
      "Id_station": "02320001",
      "Id_omm": "07061",
      "Nom_usuel": "ST QUENTIN",
      "Latitude": "49.818333",
      "Longitude": "3.206000",
      "Altitude": "98",
      "Date_ouverture": "1933-01-01",
      "Pack": "RADOME"
    }
  },
  {
    "id": "02321002",
    "id_station": "02321002",
    "id_omm": "",
    "name": "FONTAINE-LES-VV",
    "nom_usuel": "FONTAINE-LES-VV",
    "lat": 49.837333,
    "lon": 3.877833,
    "elev": 186.0,
    "altitude": 186.0,
    "date_ouverture": "1987-07-01",
    "pack": "RADOME",
    "provider": "METEOFRANCE",
    "source": "Meteo-France DPObs /liste-stations",
    "raw": {
      "Id_station": "02321002",
      "Id_omm": "",
      "Nom_usuel": "FONTAINE-LES-VV",
      "Latitude": "49.837333",
      "Longitude": "3.877833",
      "Altitude": "186",
      "Date_ouverture": "1987-07-01",
      "Pack": "RADOME"
    }
  },
  {
    "id": "02346001",
    "id_station": "02346001",
    "id_omm": "",
    "name": "GIZY",
    "nom_usuel": "GIZY",
    "lat": 49.599833,
    "lon": 3.781,
    "elev": 75.0,
    "altitude": 75.0,
    "date_ouverture": "1945-01-01",
    "pack": "ETENDU",
    "provider": "METEOFRANCE",
    "source": "Meteo-France DPObs /liste-stations",
    "raw": {
      "Id_station": "02346001",
      "Id_omm": "",
      "Nom_usuel": "GIZY",
      "Latitude": "49.599833",
      "Longitude": "3.781000",
      "Altitude": "75",
      "Date_ouverture": "1945-01-01",
      "Pack": "ETENDU"
    }
  },
  {
    "id": "02381001",
    "id_station": "02381001",
    "id_omm": "",
    "name": "HIRSON",
    "nom_usuel": "HIRSON",
    "lat": 49.922,
    "lon": 4.077167,
    "elev": 165.0,
    "altitude": 165.0,
    "date_ouverture": "1859-01-01",
    "pack": "ETENDU",
    "provider": "METEOFRANCE",
    "source": "Meteo-France DPObs /liste-stations",
    "raw": {
      "Id_station": "02381001",
      "Id_omm": "",
      "Nom_usuel": "HIRSON",
      "Latitude": "49.922000",
      "Longitude": "4.077167",
      "Altitude": "165",
      "Date_ouverture": "1859-01-01",
      "Pack": "ETENDU"
    }
  },
  {
    "id": "02471001",
    "id_station": "02471001",
    "id_omm": "",
    "name": "MARTIGNY-COURPI",
    "nom_usuel": "MARTIGNY-COURPI",
    "lat": 49.485667,
    "lon": 3.693167,
    "elev": 95.0,
    "altitude": 95.0,
    "date_ouverture": "1955-12-01",
    "pack": "ETENDU",
    "provider": "METEOFRANCE",
    "source": "Meteo-France DPObs /liste-stations",
    "raw": {
      "Id_station": "02471001",
      "Id_omm": "",
      "Nom_usuel": "MARTIGNY-COURPI",
      "Latitude": "49.485667",
      "Longitude": "3.693167",
      "Altitude": "95",
      "Date_ouverture": "1955-12-01",
      "Pack": "ETENDU"
    }
  },
  {
    "id": "02585001",
    "id_station": "02585001",
    "id_omm": "",
    "name": "PARCY-ET-TIGNY",
    "nom_usuel": "PARCY-ET-TIGNY",
    "lat": 49.280167,
    "lon": 3.331,
    "elev": 148.0,
    "altitude": 148.0,
    "date_ouverture": "1954-08-01",
    "pack": "ETENDU",
    "provider": "METEOFRANCE",
    "source": "Meteo-France DPObs /liste-stations",
    "raw": {
      "Id_station": "02585001",
      "Id_omm": "",
      "Nom_usuel": "PARCY-ET-TIGNY",
      "Latitude": "49.280167",
      "Longitude": "3.331000",
      "Altitude": "148",
      "Date_ouverture": "1954-08-01",
      "Pack": "ETENDU"
    }
  },
  {
    "id": "02705001",
    "id_station": "02705001",
    "id_omm": "",
    "name": "NIZY-LE-COMTE",
    "nom_usuel": "NIZY-LE-COMTE",
    "lat": 49.566,
    "lon": 4.0365,
    "elev": 90.0,
    "altitude": 90.0,
    "date_ouverture": "1986-07-01",
    "pack": "RADOME",
    "provider": "METEOFRANCE",
    "source": "Meteo-France DPObs /liste-stations",
    "raw": {
      "Id_station": "02705001",
      "Id_omm": "",
      "Nom_usuel": "NIZY-LE-COMTE",
      "Latitude": "49.566000",
      "Longitude": "4.036500",
      "Altitude": "90",
      "Date_ouverture": "1986-07-01",
      "Pack": "RADOME"
    }
  },
  {
    "id": "02738001",
    "id_station": "02738001",
    "id_omm": "",
    "name": "TERGNIER",
    "nom_usuel": "TERGNIER",
    "lat": 49.663833,
    "lon": 3.320667,
    "elev": 59.0,
    "altitude": 59.0,
    "date_ouverture": "1956-10-01",
    "pack": "ETENDU",
    "provider": "METEOFRANCE",
    "source": "Meteo-France DPObs /liste-stations",
    "raw": {
      "Id_station": "02738001",
      "Id_omm": "",
      "Nom_usuel": "TERGNIER",
      "Latitude": "49.663833",
      "Longitude": "3.320667",
      "Altitude": "59",
      "Date_ouverture": "1956-10-01",
      "Pack": "ETENDU"
    }
  },
  {
    "id": "03036002",
    "id_station": "03036002",
    "id_omm": "",
    "name": "BOURBON_SAPC",
    "nom_usuel": "BOURBON_SAPC",
    "lat": 46.58,
    "lon": 3.0495,
    "elev": 270.0,
    "altitude": 270.0,
    "date_ouverture": "1993-05-01",
    "pack": "ETENDU",
    "provider": "METEOFRANCE",
    "source": "Meteo-France DPObs /liste-stations",
    "raw": {
      "Id_station": "03036002",
      "Id_omm": "",
      "Nom_usuel": "BOURBON_SAPC",
      "Latitude": "46.580000",
      "Longitude": "3.049500",
      "Altitude": "270",
      "Date_ouverture": "1993-05-01",
      "Pack": "ETENDU"
    }
  },
  {
    "id": "03059001",
    "id_station": "03059001",
    "id_omm": "",
    "name": "CHAREIL-CINTRAT_SAPC",
    "nom_usuel": "CHAREIL-CINTRAT_SAPC",
    "lat": 46.275833,
    "lon": 3.225667,
    "elev": 286.0,
    "altitude": 286.0,
    "date_ouverture": "1950-05-01",
    "pack": "ETENDU",
    "provider": "METEOFRANCE",
    "source": "Meteo-France DPObs /liste-stations",
    "raw": {
      "Id_station": "03059001",
      "Id_omm": "",
      "Nom_usuel": "CHAREIL-CINTRAT_SAPC",
      "Latitude": "46.275833",
      "Longitude": "3.225667",
      "Altitude": "286",
      "Date_ouverture": "1950-05-01",
      "Pack": "ETENDU"
    }
  },
  {
    "id": "03060001",
    "id_station": "03060001",
    "id_omm": "07374",
    "name": "VICHY-CHARMEIL",
    "nom_usuel": "VICHY-CHARMEIL",
    "lat": 46.166667,
    "lon": 3.398667,
    "elev": 249.0,
    "altitude": 249.0,
    "date_ouverture": "1941-01-01",
    "pack": "RADOME",
    "provider": "METEOFRANCE",
    "source": "Meteo-France DPObs /liste-stations",
    "raw": {
      "Id_station": "03060001",
      "Id_omm": "07374",
      "Nom_usuel": "VICHY-CHARMEIL",
      "Latitude": "46.166667",
      "Longitude": "3.398667",
      "Altitude": "249",
      "Date_ouverture": "1941-01-01",
      "Pack": "RADOME"
    }
  },
  {
    "id": "03061001",
    "id_station": "03061001",
    "id_omm": "",
    "name": "CHARMES_SAPC",
    "nom_usuel": "CHARMES_SAPC",
    "lat": 46.0635,
    "lon": 3.233667,
    "elev": 330.0,
    "altitude": 330.0,
    "date_ouverture": "1995-08-01",
    "pack": "ETENDU",
    "provider": "METEOFRANCE",
    "source": "Meteo-France DPObs /liste-stations",
    "raw": {
      "Id_station": "03061001",
      "Id_omm": "",
      "Nom_usuel": "CHARMES_SAPC",
      "Latitude": "46.063500",
      "Longitude": "3.233667",
      "Altitude": "330",
      "Date_ouverture": "1995-08-01",
      "Pack": "ETENDU"
    }
  },
  {
    "id": "03074001",
    "id_station": "03074001",
    "id_omm": "",
    "name": "CHEVAGNES",
    "nom_usuel": "CHEVAGNES",
    "lat": 46.630667,
    "lon": 3.549167,
    "elev": 228.0,
    "altitude": 228.0,
    "date_ouverture": "1946-01-01",
    "pack": "ETENDU",
    "provider": "METEOFRANCE",
    "source": "Meteo-France DPObs /liste-stations",
    "raw": {
      "Id_station": "03074001",
      "Id_omm": "",
      "Nom_usuel": "CHEVAGNES",
      "Latitude": "46.630667",
      "Longitude": "3.549167",
      "Altitude": "228",
      "Date_ouverture": "1946-01-01",
      "Pack": "ETENDU"
    }
  },
  {
    "id": "03100001",
    "id_station": "03100001",
    "id_omm": "",
    "name": "DIOU",
    "nom_usuel": "DIOU",
    "lat": 46.541667,
    "lon": 3.706667,
    "elev": 220.0,
    "altitude": 220.0,
    "date_ouverture": "1883-01-01",
    "pack": "ETENDU",
    "provider": "METEOFRANCE",
    "source": "Meteo-France DPObs /liste-stations",
    "raw": {
      "Id_station": "03100001",
      "Id_omm": "",
      "Nom_usuel": "DIOU",
      "Latitude": "46.541667",
      "Longitude": "3.706667",
      "Altitude": "220",
      "Date_ouverture": "1883-01-01",
      "Pack": "ETENDU"
    }
  },
  {
    "id": "03106002",
    "id_station": "03106002",
    "id_omm": "",
    "name": "DURDAT-LAREQUILLE",
    "nom_usuel": "DURDAT-LAREQUILLE",
    "lat": 46.251667,
    "lon": 2.695667,
    "elev": 500.0,
    "altitude": 500.0,
    "date_ouverture": "1962-05-01",
    "pack": "ETENDU",
    "provider": "METEOFRANCE",
    "source": "Meteo-France DPObs /liste-stations",
    "raw": {
      "Id_station": "03106002",
      "Id_omm": "",
      "Nom_usuel": "DURDAT-LAREQUILLE",
      "Latitude": "46.251667",
      "Longitude": "2.695667",
      "Altitude": "500",
      "Date_ouverture": "1962-05-01",
      "Pack": "ETENDU"
    }
  },
  {
    "id": "03108001",
    "id_station": "03108001",
    "id_omm": "",
    "name": "ECHASSIERES_SAPC",
    "nom_usuel": "ECHASSIERES_SAPC",
    "lat": 46.191167,
    "lon": 2.957667,
    "elev": 650.0,
    "altitude": 650.0,
    "date_ouverture": "1966-11-01",
    "pack": "ETENDU",
    "provider": "METEOFRANCE",
    "source": "Meteo-France DPObs /liste-stations",
    "raw": {
      "Id_station": "03108001",
      "Id_omm": "",
      "Nom_usuel": "ECHASSIERES_SAPC",
      "Latitude": "46.191167",
      "Longitude": "2.957667",
      "Altitude": "650",
      "Date_ouverture": "1966-11-01",
      "Pack": "ETENDU"
    }
  },
  {
    "id": "03114001",
    "id_station": "03114001",
    "id_omm": "",
    "name": "FERTE-HAUTERIVE",
    "nom_usuel": "FERTE-HAUTERIVE",
    "lat": 46.376833,
    "lon": 3.331,
    "elev": 226.0,
    "altitude": 226.0,
    "date_ouverture": "1957-01-01",
    "pack": "ETENDU",
    "provider": "METEOFRANCE",
    "source": "Meteo-France DPObs /liste-stations",
    "raw": {
      "Id_station": "03114001",
      "Id_omm": "",
      "Nom_usuel": "FERTE-HAUTERIVE",
      "Latitude": "46.376833",
      "Longitude": "3.331000",
      "Altitude": "226",
      "Date_ouverture": "1957-01-01",
      "Pack": "ETENDU"
    }
  },
  {
    "id": "03125001",
    "id_station": "03125001",
    "id_omm": "",
    "name": "LA GUILLERMIE",
    "nom_usuel": "LA GUILLERMIE",
    "lat": 45.984667,
    "lon": 3.639833,
    "elev": 722.0,
    "altitude": 722.0,
    "date_ouverture": "1935-01-01",
    "pack": "ETENDU",
    "provider": "METEOFRANCE",
    "source": "Meteo-France DPObs /liste-stations",
    "raw": {
      "Id_station": "03125001",
      "Id_omm": "",
      "Nom_usuel": "LA GUILLERMIE",
      "Latitude": "45.984667",
      "Longitude": "3.639833",
      "Altitude": "722",
      "Date_ouverture": "1935-01-01",
      "Pack": "ETENDU"
    }
  },
  {
    "id": "03130002",
    "id_station": "03130002",
    "id_omm": "",
    "name": "ISLE-ET-BARDAIS",
    "nom_usuel": "ISLE-ET-BARDAIS",
    "lat": 46.663333,
    "lon": 2.730167,
    "elev": 262.0,
    "altitude": 262.0,
    "date_ouverture": "1953-05-01",
    "pack": "ETENDU",
    "provider": "METEOFRANCE",
    "source": "Meteo-France DPObs /liste-stations",
    "raw": {
      "Id_station": "03130002",
      "Id_omm": "",
      "Nom_usuel": "ISLE-ET-BARDAIS",
      "Latitude": "46.663333",
      "Longitude": "2.730167",
      "Altitude": "262",
      "Date_ouverture": "1953-05-01",
      "Pack": "ETENDU"
    }
  },
  {
    "id": "03155003",
    "id_station": "03155003",
    "id_omm": "",
    "name": "LURCY-LEVIS SA",
    "nom_usuel": "LURCY-LEVIS SA",
    "lat": 46.718333,
    "lon": 2.947667,
    "elev": 225.0,
    "altitude": 225.0,
    "date_ouverture": "1991-01-01",
    "pack": "RADOME",
    "provider": "METEOFRANCE",
    "source": "Meteo-France DPObs /liste-stations",
    "raw": {
      "Id_station": "03155003",
      "Id_omm": "",
      "Nom_usuel": "LURCY-LEVIS SA",
      "Latitude": "46.718333",
      "Longitude": "2.947667",
      "Altitude": "225",
      "Date_ouverture": "1991-01-01",
      "Pack": "RADOME"
    }
  },
  {
    "id": "03162001",
    "id_station": "03162001",
    "id_omm": "",
    "name": "MARIGNY",
    "nom_usuel": "MARIGNY",
    "lat": 46.581667,
    "lon": 3.195833,
    "elev": 249.0,
    "altitude": 249.0,
    "date_ouverture": "1927-09-01",
    "pack": "ETENDU",
    "provider": "METEOFRANCE",
    "source": "Meteo-France DPObs /liste-stations",
    "raw": {
      "Id_station": "03162001",
      "Id_omm": "",
      "Nom_usuel": "MARIGNY",
      "Latitude": "46.581667",
      "Longitude": "3.195833",
      "Altitude": "249",
      "Date_ouverture": "1927-09-01",
      "Pack": "ETENDU"
    }
  },
  {
    "id": "03180001",
    "id_station": "03180001",
    "id_omm": "",
    "name": "MONTBEUGNY",
    "nom_usuel": "MONTBEUGNY",
    "lat": 46.536333,
    "lon": 3.423167,
    "elev": 275.0,
    "altitude": 275.0,
    "date_ouverture": "1984-01-01",
    "pack": "RADOME",
    "provider": "METEOFRANCE",
    "source": "Meteo-France DPObs /liste-stations",
    "raw": {
      "Id_station": "03180001",
      "Id_omm": "",
      "Nom_usuel": "MONTBEUGNY",
      "Latitude": "46.536333",
      "Longitude": "3.423167",
      "Altitude": "275",
      "Date_ouverture": "1984-01-01",
      "Pack": "RADOME"
    }
  },
  {
    "id": "03185007",
    "id_station": "03185007",
    "id_omm": "",
    "name": "MONTLUCON",
    "nom_usuel": "MONTLUCON",
    "lat": 46.355167,
    "lon": 2.574667,
    "elev": 229.0,
    "altitude": 229.0,
    "date_ouverture": "2002-04-01",
    "pack": "RADOME",
    "provider": "METEOFRANCE",
    "source": "Meteo-France DPObs /liste-stations",
    "raw": {
      "Id_station": "03185007",
      "Id_omm": "",
      "Nom_usuel": "MONTLUCON",
      "Latitude": "46.355167",
      "Longitude": "2.574667",
      "Altitude": "229",
      "Date_ouverture": "2002-04-01",
      "Pack": "RADOME"
    }
  },
  {
    "id": "03204001",
    "id_station": "03204001",
    "id_omm": "",
    "name": "PARAY-SOUS-BRIAILLES",
    "nom_usuel": "PARAY-SOUS-BRIAILLES",
    "lat": 46.2835,
    "lon": 3.337833,
    "elev": 250.0,
    "altitude": 250.0,
    "date_ouverture": "1937-05-01",
    "pack": "ETENDU",
    "provider": "METEOFRANCE",
    "source": "Meteo-France DPObs /liste-stations",
    "raw": {
      "Id_station": "03204001",
      "Id_omm": "",
      "Nom_usuel": "PARAY-SOUS-BRIAILLES",
      "Latitude": "46.283500",
      "Longitude": "3.337833",
      "Altitude": "250",
      "Date_ouverture": "1937-05-01",
      "Pack": "ETENDU"
    }
  },
  {
    "id": "03226001",
    "id_station": "03226001",
    "id_omm": "",
    "name": "SAINT DIDIER_SAPC",
    "nom_usuel": "SAINT DIDIER_SAPC",
    "lat": 46.365333,
    "lon": 3.850167,
    "elev": 293.0,
    "altitude": 293.0,
    "date_ouverture": "1997-03-01",
    "pack": "ETENDU",
    "provider": "METEOFRANCE",
    "source": "Meteo-France DPObs /liste-stations",
    "raw": {
      "Id_station": "03226001",
      "Id_omm": "",
      "Nom_usuel": "SAINT DIDIER_SAPC",
      "Latitude": "46.365333",
      "Longitude": "3.850167",
      "Altitude": "293",
      "Date_ouverture": "1997-03-01",
      "Pack": "ETENDU"
    }
  },
  {
    "id": "03240001",
    "id_station": "03240001",
    "id_omm": "",
    "name": "ST-LEON",
    "nom_usuel": "ST-LEON",
    "lat": 46.4025,
    "lon": 3.685833,
    "elev": 378.0,
    "altitude": 378.0,
    "date_ouverture": "1962-10-01",
    "pack": "ETENDU",
    "provider": "METEOFRANCE",
    "source": "Meteo-France DPObs /liste-stations",
    "raw": {
      "Id_station": "03240001",
      "Id_omm": "",
      "Nom_usuel": "ST-LEON",
      "Latitude": "46.402500",
      "Longitude": "3.685833",
      "Altitude": "378",
      "Date_ouverture": "1962-10-01",
      "Pack": "ETENDU"
    }
  },
  {
    "id": "03248001",
    "id_station": "03248001",
    "id_omm": "",
    "name": "ST-NICOLAS",
    "nom_usuel": "ST-NICOLAS",
    "lat": 46.0515,
    "lon": 3.805167,
    "elev": 1022.0,
    "altitude": 1022.0,
    "date_ouverture": "1991-03-01",
    "pack": "RADOME",
    "provider": "METEOFRANCE",
    "source": "Meteo-France DPObs /liste-stations",
    "raw": {
      "Id_station": "03248001",
      "Id_omm": "",
      "Nom_usuel": "ST-NICOLAS",
      "Latitude": "46.051500",
      "Longitude": "3.805167",
      "Altitude": "1022",
      "Date_ouverture": "1991-03-01",
      "Pack": "RADOME"
    }
  },
  {
    "id": "03285001",
    "id_station": "03285001",
    "id_omm": "",
    "name": "TORTEZAIS_SAPC",
    "nom_usuel": "TORTEZAIS_SAPC",
    "lat": 46.451333,
    "lon": 2.857,
    "elev": 256.0,
    "altitude": 256.0,
    "date_ouverture": "1991-04-01",
    "pack": "ETENDU",
    "provider": "METEOFRANCE",
    "source": "Meteo-France DPObs /liste-stations",
    "raw": {
      "Id_station": "03285001",
      "Id_omm": "",
      "Nom_usuel": "TORTEZAIS_SAPC",
      "Latitude": "46.451333",
      "Longitude": "2.857000",
      "Altitude": "256",
      "Date_ouverture": "1991-04-01",
      "Pack": "ETENDU"
    }
  },
  {
    "id": "03310001",
    "id_station": "03310001",
    "id_omm": "",
    "name": "VICHY-VILLE",
    "nom_usuel": "VICHY-VILLE",
    "lat": 46.117667,
    "lon": 3.439,
    "elev": 255.0,
    "altitude": 255.0,
    "date_ouverture": "1858-07-01",
    "pack": "ETENDU",
    "provider": "METEOFRANCE",
    "source": "Meteo-France DPObs /liste-stations",
    "raw": {
      "Id_station": "03310001",
      "Id_omm": "",
      "Nom_usuel": "VICHY-VILLE",
      "Latitude": "46.117667",
      "Longitude": "3.439000",
      "Altitude": "255",
      "Date_ouverture": "1858-07-01",
      "Pack": "ETENDU"
    }
  },
  {
    "id": "03321001",
    "id_station": "03321001",
    "id_omm": "",
    "name": "YZEURE",
    "nom_usuel": "YZEURE",
    "lat": 46.579167,
    "lon": 3.352833,
    "elev": 242.0,
    "altitude": 242.0,
    "date_ouverture": "1867-01-01",
    "pack": "ETENDU",
    "provider": "METEOFRANCE",
    "source": "Meteo-France DPObs /liste-stations",
    "raw": {
      "Id_station": "03321001",
      "Id_omm": "",
      "Nom_usuel": "YZEURE",
      "Latitude": "46.579167",
      "Longitude": "3.352833",
      "Altitude": "242",
      "Date_ouverture": "1867-01-01",
      "Pack": "ETENDU"
    }
  },
  {
    "id": "04006005",
    "id_station": "04006005",
    "id_omm": "",
    "name": "ALLOS_SAPC",
    "nom_usuel": "ALLOS_SAPC",
    "lat": 44.2425,
    "lon": 6.625333,
    "elev": 1400.0,
    "altitude": 1400.0,
    "date_ouverture": "2010-05-26",
    "pack": "ETENDU",
    "provider": "METEOFRANCE",
    "source": "Meteo-France DPObs /liste-stations",
    "raw": {
      "Id_station": "04006005",
      "Id_omm": "",
      "Nom_usuel": "ALLOS_SAPC",
      "Latitude": "44.242500",
      "Longitude": "6.625333",
      "Altitude": "1400",
      "Date_ouverture": "2010-05-26",
      "Pack": "ETENDU"
    }
  },
  {
    "id": "04019001",
    "id_station": "04019001",
    "id_omm": "",
    "name": "BARCELONNETTE",
    "nom_usuel": "BARCELONNETTE",
    "lat": 44.391167,
    "lon": 6.670167,
    "elev": 1155.0,
    "altitude": 1155.0,
    "date_ouverture": "1923-01-01",
    "pack": "RADOME",
    "provider": "METEOFRANCE",
    "source": "Meteo-France DPObs /liste-stations",
    "raw": {
      "Id_station": "04019001",
      "Id_omm": "",
      "Nom_usuel": "BARCELONNETTE",
      "Latitude": "44.391167",
      "Longitude": "6.670167",
      "Altitude": "1155",
      "Date_ouverture": "1923-01-01",
      "Pack": "RADOME"
    }
  },
  {
    "id": "04022001",
    "id_station": "04022001",
    "id_omm": "",
    "name": "BARREME",
    "nom_usuel": "BARREME",
    "lat": 43.957167,
    "lon": 6.372333,
    "elev": 743.0,
    "altitude": 743.0,
    "date_ouverture": "1966-07-01",
    "pack": "ETENDU",
    "provider": "METEOFRANCE",
    "source": "Meteo-France DPObs /liste-stations",
    "raw": {
      "Id_station": "04022001",
      "Id_omm": "",
      "Nom_usuel": "BARREME",
      "Latitude": "43.957167",
      "Longitude": "6.372333",
      "Altitude": "743",
      "Date_ouverture": "1966-07-01",
      "Pack": "ETENDU"
    }
  },
  {
    "id": "04023001",
    "id_station": "04023001",
    "id_omm": "",
    "name": "BAYONS",
    "nom_usuel": "BAYONS",
    "lat": 44.342667,
    "lon": 6.178667,
    "elev": 886.0,
    "altitude": 886.0,
    "date_ouverture": "1997-01-01",
    "pack": "ETENDU",
    "provider": "METEOFRANCE",
    "source": "Meteo-France DPObs /liste-stations",
    "raw": {
      "Id_station": "04023001",
      "Id_omm": "",
      "Nom_usuel": "BAYONS",
      "Latitude": "44.342667",
      "Longitude": "6.178667",
      "Altitude": "886",
      "Date_ouverture": "1997-01-01",
      "Pack": "ETENDU"
    }
  },
  {
    "id": "04024004",
    "id_station": "04024004",
    "id_omm": "",
    "name": "BEAUJEU ST PIERRE",
    "nom_usuel": "BEAUJEU ST PIERRE",
    "lat": 44.209833,
    "lon": 6.385167,
    "elev": 960.0,
    "altitude": 960.0,
    "date_ouverture": "2023-08-24",
    "pack": "ETENDU",
    "provider": "METEOFRANCE",
    "source": "Meteo-France DPObs /liste-stations",
    "raw": {
      "Id_station": "04024004",
      "Id_omm": "",
      "Nom_usuel": "BEAUJEU ST PIERRE",
      "Latitude": "44.209833",
      "Longitude": "6.385167",
      "Altitude": "960",
      "Date_ouverture": "2023-08-24",
      "Pack": "ETENDU"
    }
  },
  {
    "id": "04039001",
    "id_station": "04039001",
    "id_omm": "",
    "name": "CASTELLANE",
    "nom_usuel": "CASTELLANE",
    "lat": 43.849167,
    "lon": 6.508,
    "elev": 729.0,
    "altitude": 729.0,
    "date_ouverture": "1968-03-01",
    "pack": "ETENDU",
    "provider": "METEOFRANCE",
    "source": "Meteo-France DPObs /liste-stations",
    "raw": {
      "Id_station": "04039001",
      "Id_omm": "",
      "Nom_usuel": "CASTELLANE",
      "Latitude": "43.849167",
      "Longitude": "6.508000",
      "Altitude": "729",
      "Date_ouverture": "1968-03-01",
      "Pack": "ETENDU"
    }
  },
  {
    "id": "04041001",
    "id_station": "04041001",
    "id_omm": "",
    "name": "LE CASTELLET",
    "nom_usuel": "LE CASTELLET",
    "lat": 43.938333,
    "lon": 5.9795,
    "elev": 473.0,
    "altitude": 473.0,
    "date_ouverture": "1957-12-01",
    "pack": "ETENDU",
    "provider": "METEOFRANCE",
    "source": "Meteo-France DPObs /liste-stations",
    "raw": {
      "Id_station": "04041001",
      "Id_omm": "",
      "Nom_usuel": "LE CASTELLET",
      "Latitude": "43.938333",
      "Longitude": "5.979500",
      "Altitude": "473",
      "Date_ouverture": "1957-12-01",
      "Pack": "ETENDU"
    }
  },
  {
    "id": "04049001",
    "id_station": "04049001",
    "id_omm": "07588",
    "name": "ST AUBAN",
    "nom_usuel": "ST AUBAN",
    "lat": 44.062167,
    "lon": 5.989667,
    "elev": 458.0,
    "altitude": 458.0,
    "date_ouverture": "1954-01-01",
    "pack": "RADOME",
    "provider": "METEOFRANCE",
    "source": "Meteo-France DPObs /liste-stations",
    "raw": {
      "Id_station": "04049001",
      "Id_omm": "07588",
      "Nom_usuel": "ST AUBAN",
      "Latitude": "44.062167",
      "Longitude": "5.989667",
      "Altitude": "458",
      "Date_ouverture": "1954-01-01",
      "Pack": "RADOME"
    }
  },
  {
    "id": "04068001",
    "id_station": "04068001",
    "id_omm": "",
    "name": "DAUPHIN",
    "nom_usuel": "DAUPHIN",
    "lat": 43.909833,
    "lon": 5.767167,
    "elev": 427.0,
    "altitude": 427.0,
    "date_ouverture": "2003-08-01",
    "pack": "RADOME",
    "provider": "METEOFRANCE",
    "source": "Meteo-France DPObs /liste-stations",
    "raw": {
      "Id_station": "04068001",
      "Id_omm": "",
      "Nom_usuel": "DAUPHIN",
      "Latitude": "43.909833",
      "Longitude": "5.767167",
      "Altitude": "427",
      "Date_ouverture": "2003-08-01",
      "Pack": "RADOME"
    }
  },
  {
    "id": "04070009",
    "id_station": "04070009",
    "id_omm": "",
    "name": "DIGNE LES BAINS",
    "nom_usuel": "DIGNE LES BAINS",
    "lat": 44.07,
    "lon": 6.186667,
    "elev": 554.0,
    "altitude": 554.0,
    "date_ouverture": "2003-08-01",
    "pack": "RADOME",
    "provider": "METEOFRANCE",
    "source": "Meteo-France DPObs /liste-stations",
    "raw": {
      "Id_station": "04070009",
      "Id_omm": "",
      "Nom_usuel": "DIGNE LES BAINS",
      "Latitude": "44.070000",
      "Longitude": "6.186667",
      "Altitude": "554",
      "Date_ouverture": "2003-08-01",
      "Pack": "RADOME"
    }
  },
  {
    "id": "04096002",
    "id_station": "04096002",
    "id_omm": "",
    "name": "JAUSIERS-ST ANNE",
    "nom_usuel": "JAUSIERS-ST ANNE",
    "lat": 44.413667,
    "lon": 6.725167,
    "elev": 1240.0,
    "altitude": 1240.0,
    "date_ouverture": "1985-01-01",
    "pack": "ETENDU",
    "provider": "METEOFRANCE",
    "source": "Meteo-France DPObs /liste-stations",
    "raw": {
      "Id_station": "04096002",
      "Id_omm": "",
      "Nom_usuel": "JAUSIERS-ST ANNE",
      "Latitude": "44.413667",
      "Longitude": "6.725167",
      "Altitude": "1240",
      "Date_ouverture": "1985-01-01",
      "Pack": "ETENDU"
    }
  },
  {
    "id": "04096401",
    "id_station": "04096401",
    "id_omm": "",
    "name": "RESTEFOND-NIVOSE",
    "nom_usuel": "RESTEFOND-NIVOSE",
    "lat": 44.34,
    "lon": 6.8,
    "elev": 2550.0,
    "altitude": 2550.0,
    "date_ouverture": "1995-09-27",
    "pack": "ETENDU",
    "provider": "METEOFRANCE",
    "source": "Meteo-France DPObs /liste-stations",
    "raw": {
      "Id_station": "04096401",
      "Id_omm": "",
      "Nom_usuel": "RESTEFOND-NIVOSE",
      "Latitude": "44.340000",
      "Longitude": "6.800000",
      "Altitude": "2550",
      "Date_ouverture": "1995-09-27",
      "Pack": "ETENDU"
    }
  },
  {
    "id": "04115001",
    "id_station": "04115001",
    "id_omm": "",
    "name": "MEAILLES_SAPC",
    "nom_usuel": "MEAILLES_SAPC",
    "lat": 44.031167,
    "lon": 6.6295,
    "elev": 1090.0,
    "altitude": 1090.0,
    "date_ouverture": "2007-05-10",
    "pack": "ETENDU",
    "provider": "METEOFRANCE",
    "source": "Meteo-France DPObs /liste-stations",
    "raw": {
      "Id_station": "04115001",
      "Id_omm": "",
      "Nom_usuel": "MEAILLES_SAPC",
      "Latitude": "44.031167",
      "Longitude": "6.629500",
      "Altitude": "1090",
      "Date_ouverture": "2007-05-10",
      "Pack": "ETENDU"
    }
  },
  {
    "id": "04126001",
    "id_station": "04126001",
    "id_omm": "",
    "name": "MONTCLAR_SAPC",
    "nom_usuel": "MONTCLAR_SAPC",
    "lat": 44.391833,
    "lon": 6.333333,
    "elev": 1197.0,
    "altitude": 1197.0,
    "date_ouverture": "2007-06-26",
    "pack": "ETENDU",
    "provider": "METEOFRANCE",
    "source": "Meteo-France DPObs /liste-stations",
    "raw": {
      "Id_station": "04126001",
      "Id_omm": "",
      "Nom_usuel": "MONTCLAR_SAPC",
      "Latitude": "44.391833",
      "Longitude": "6.333333",
      "Altitude": "1197",
      "Date_ouverture": "2007-06-26",
      "Pack": "ETENDU"
    }
  },
  {
    "id": "04134002",
    "id_station": "04134002",
    "id_omm": "",
    "name": "LA MOTTE DU CAIRE",
    "nom_usuel": "LA MOTTE DU CAIRE",
    "lat": 44.326667,
    "lon": 6.0305,
    "elev": 665.0,
    "altitude": 665.0,
    "date_ouverture": "1933-08-01",
    "pack": "ETENDU",
    "provider": "METEOFRANCE",
    "source": "Meteo-France DPObs /liste-stations",
    "raw": {
      "Id_station": "04134002",
      "Id_omm": "",
      "Nom_usuel": "LA MOTTE DU CAIRE",
      "Latitude": "44.326667",
      "Longitude": "6.030500",
      "Altitude": "665",
      "Date_ouverture": "1933-08-01",
      "Pack": "ETENDU"
    }
  },
  {
    "id": "04136001",
    "id_station": "04136001",
    "id_omm": "",
    "name": "LA MURE-ARGENS",
    "nom_usuel": "LA MURE-ARGENS",
    "lat": 43.977,
    "lon": 6.520167,
    "elev": 920.0,
    "altitude": 920.0,
    "date_ouverture": "2005-06-29",
    "pack": "RADOME",
    "provider": "METEOFRANCE",
    "source": "Meteo-France DPObs /liste-stations",
    "raw": {
      "Id_station": "04136001",
      "Id_omm": "",
      "Nom_usuel": "LA MURE-ARGENS",
      "Latitude": "43.977000",
      "Longitude": "6.520167",
      "Altitude": "920",
      "Date_ouverture": "2005-06-29",
      "Pack": "RADOME"
    }
  },
  {
    "id": "04184001",
    "id_station": "04184001",
    "id_omm": "",
    "name": "ST JURS",
    "nom_usuel": "ST JURS",
    "lat": 43.900833,
    "lon": 6.2005,
    "elev": 867.0,
    "altitude": 867.0,
    "date_ouverture": "1962-10-01",
    "pack": "ETENDU",
    "provider": "METEOFRANCE",
    "source": "Meteo-France DPObs /liste-stations",
    "raw": {
      "Id_station": "04184001",
      "Id_omm": "",
      "Nom_usuel": "ST JURS",
      "Latitude": "43.900833",
      "Longitude": "6.200500",
      "Altitude": "867",
      "Date_ouverture": "1962-10-01",
      "Pack": "ETENDU"
    }
  },
  {
    "id": "04209005",
    "id_station": "04209005",
    "id_omm": "",
    "name": "SISTERON",
    "nom_usuel": "SISTERON",
    "lat": 44.2245,
    "lon": 5.916,
    "elev": 500.0,
    "altitude": 500.0,
    "date_ouverture": "1998-07-01",
    "pack": "ETENDU",
    "provider": "METEOFRANCE",
    "source": "Meteo-France DPObs /liste-stations",
    "raw": {
      "Id_station": "04209005",
      "Id_omm": "",
      "Nom_usuel": "SISTERON",
      "Latitude": "44.224500",
      "Longitude": "5.916000",
      "Altitude": "500",
      "Date_ouverture": "1998-07-01",
      "Pack": "ETENDU"
    }
  },
  {
    "id": "04222001",
    "id_station": "04222001",
    "id_omm": "",
    "name": "TURRIERS",
    "nom_usuel": "TURRIERS",
    "lat": 44.399,
    "lon": 6.1695,
    "elev": 1020.0,
    "altitude": 1020.0,
    "date_ouverture": "2000-01-01",
    "pack": "ETENDU",
    "provider": "METEOFRANCE",
    "source": "Meteo-France DPObs /liste-stations",
    "raw": {
      "Id_station": "04222001",
      "Id_omm": "",
      "Nom_usuel": "TURRIERS",
      "Latitude": "44.399000",
      "Longitude": "6.169500",
      "Altitude": "1020",
      "Date_ouverture": "2000-01-01",
      "Pack": "ETENDU"
    }
  },
  {
    "id": "04230001",
    "id_station": "04230001",
    "id_omm": "",
    "name": "VALENSOLE",
    "nom_usuel": "VALENSOLE",
    "lat": 43.8395,
    "lon": 6.000833,
    "elev": 600.0,
    "altitude": 600.0,
    "date_ouverture": "1995-01-01",
    "pack": "RADOME",
    "provider": "METEOFRANCE",
    "source": "Meteo-France DPObs /liste-stations",
    "raw": {
      "Id_station": "04230001",
      "Id_omm": "",
      "Nom_usuel": "VALENSOLE",
      "Latitude": "43.839500",
      "Longitude": "6.000833",
      "Altitude": "600",
      "Date_ouverture": "1995-01-01",
      "Pack": "RADOME"
    }
  },
  {
    "id": "05004001",
    "id_station": "05004001",
    "id_omm": "",
    "name": "ANCELLE",
    "nom_usuel": "ANCELLE",
    "lat": 44.6245,
    "lon": 6.209833,
    "elev": 1354.0,
    "altitude": 1354.0,
    "date_ouverture": "1895-01-01",
    "pack": "ETENDU",
    "provider": "METEOFRANCE",
    "source": "Meteo-France DPObs /liste-stations",
    "raw": {
      "Id_station": "05004001",
      "Id_omm": "",
      "Nom_usuel": "ANCELLE",
      "Latitude": "44.624500",
      "Longitude": "6.209833",
      "Altitude": "1354",
      "Date_ouverture": "1895-01-01",
      "Pack": "ETENDU"
    }
  },
  {
    "id": "05007003",
    "id_station": "05007003",
    "id_omm": "",
    "name": "ARVIEUX",
    "nom_usuel": "ARVIEUX",
    "lat": 44.796,
    "lon": 6.728,
    "elev": 1825.0,
    "altitude": 1825.0,
    "date_ouverture": "2007-07-05",
    "pack": "RADOME",
    "provider": "METEOFRANCE",
    "source": "Meteo-France DPObs /liste-stations",
    "raw": {
      "Id_station": "05007003",
      "Id_omm": "",
      "Nom_usuel": "ARVIEUX",
      "Latitude": "44.796000",
      "Longitude": "6.728000",
      "Altitude": "1825",
      "Date_ouverture": "2007-07-05",
      "Pack": "RADOME"
    }
  },
  {
    "id": "05027001",
    "id_station": "05027001",
    "id_omm": "",
    "name": "CERVIERES",
    "nom_usuel": "CERVIERES",
    "lat": 44.869333,
    "lon": 6.7235,
    "elev": 1614.0,
    "altitude": 1614.0,
    "date_ouverture": "1931-01-01",
    "pack": "ETENDU",
    "provider": "METEOFRANCE",
    "source": "Meteo-France DPObs /liste-stations",
    "raw": {
      "Id_station": "05027001",
      "Id_omm": "",
      "Nom_usuel": "CERVIERES",
      "Latitude": "44.869333",
      "Longitude": "6.723500",
      "Altitude": "1614",
      "Date_ouverture": "1931-01-01",
      "Pack": "ETENDU"
    }
  },
  {
    "id": "05038001",
    "id_station": "05038001",
    "id_omm": "",
    "name": "CHATEAU-VILLE-VIEILLE",
    "nom_usuel": "CHATEAU-VILLE-VIEILLE",
    "lat": 44.759333,
    "lon": 6.809,
    "elev": 1355.0,
    "altitude": 1355.0,
    "date_ouverture": "1928-01-01",
    "pack": "ETENDU",
    "provider": "METEOFRANCE",
    "source": "Meteo-France DPObs /liste-stations",
    "raw": {
      "Id_station": "05038001",
      "Id_omm": "",
      "Nom_usuel": "CHATEAU-VILLE-VIEILLE",
      "Latitude": "44.759333",
      "Longitude": "6.809000",
      "Altitude": "1355",
      "Date_ouverture": "1928-01-01",
      "Pack": "ETENDU"
    }
  },
  {
    "id": "05044400",
    "id_station": "05044400",
    "id_omm": "",
    "name": "PARPAILLON-NIVOSE",
    "nom_usuel": "PARPAILLON-NIVOSE",
    "lat": 44.495333,
    "lon": 6.636333,
    "elev": 2545.0,
    "altitude": 2545.0,
    "date_ouverture": "2010-08-11",
    "pack": "ETENDU",
    "provider": "METEOFRANCE",
    "source": "Meteo-France DPObs /liste-stations",
    "raw": {
      "Id_station": "05044400",
      "Id_omm": "",
      "Nom_usuel": "PARPAILLON-NIVOSE",
      "Latitude": "44.495333",
      "Longitude": "6.636333",
      "Altitude": "2545",
      "Date_ouverture": "2010-08-11",
      "Pack": "ETENDU"
    }
  },
  {
    "id": "05046001",
    "id_station": "05046001",
    "id_omm": "07591",
    "name": "EMBRUN",
    "nom_usuel": "EMBRUN",
    "lat": 44.571167,
    "lon": 6.508667,
    "elev": 873.0,
    "altitude": 873.0,
    "date_ouverture": "1806-01-01",
    "pack": "RADOME",
    "provider": "METEOFRANCE",
    "source": "Meteo-France DPObs /liste-stations",
    "raw": {
      "Id_station": "05046001",
      "Id_omm": "07591",
      "Nom_usuel": "EMBRUN",
      "Latitude": "44.571167",
      "Longitude": "6.508667",
      "Altitude": "873",
      "Date_ouverture": "1806-01-01",
      "Pack": "RADOME"
    }
  },
  {
    "id": "05055001",
    "id_station": "05055001",
    "id_omm": "",
    "name": "LA FAURIE",
    "nom_usuel": "LA FAURIE",
    "lat": 44.566667,
    "lon": 5.750167,
    "elev": 825.0,
    "altitude": 825.0,
    "date_ouverture": "1997-06-01",
    "pack": "ETENDU",
    "provider": "METEOFRANCE",
    "source": "Meteo-France DPObs /liste-stations",
    "raw": {
      "Id_station": "05055001",
      "Id_omm": "",
      "Nom_usuel": "LA FAURIE",
      "Latitude": "44.566667",
      "Longitude": "5.750167",
      "Altitude": "825",
      "Date_ouverture": "1997-06-01",
      "Pack": "ETENDU"
    }
  },
  {
    "id": "05061009",
    "id_station": "05061009",
    "id_omm": "",
    "name": "GAP",
    "nom_usuel": "GAP",
    "lat": 44.577667,
    "lon": 6.079833,
    "elev": 885.0,
    "altitude": 885.0,
    "date_ouverture": "2003-12-01",
    "pack": "RADOME",
    "provider": "METEOFRANCE",
    "source": "Meteo-France DPObs /liste-stations",
    "raw": {
      "Id_station": "05061009",
      "Id_omm": "",
      "Nom_usuel": "GAP",
      "Latitude": "44.577667",
      "Longitude": "6.079833",
      "Altitude": "885",
      "Date_ouverture": "2003-12-01",
      "Pack": "RADOME"
    }
  },
  {
    "id": "05063402",
    "id_station": "05063402",
    "id_omm": "",
    "name": "LA MEIJE-NIVOSE",
    "nom_usuel": "LA MEIJE-NIVOSE",
    "lat": 45.012333,
    "lon": 6.265167,
    "elev": 3093.0,
    "altitude": 3093.0,
    "date_ouverture": "1990-03-22",
    "pack": "ETENDU",
    "provider": "METEOFRANCE",
    "source": "Meteo-France DPObs /liste-stations",
    "raw": {
      "Id_station": "05063402",
      "Id_omm": "",
      "Nom_usuel": "LA MEIJE-NIVOSE",
      "Latitude": "45.012333",
      "Longitude": "6.265167",
      "Altitude": "3093",
      "Date_ouverture": "1990-03-22",
      "Pack": "ETENDU"
    }
  },
  {
    "id": "05070003",
    "id_station": "05070003",
    "id_omm": "",
    "name": "LARAGNE MONTEGLIN",
    "nom_usuel": "LARAGNE MONTEGLIN",
    "lat": 44.319167,
    "lon": 5.7945,
    "elev": 565.0,
    "altitude": 565.0,
    "date_ouverture": "1992-12-01",
    "pack": "RADOME",
    "provider": "METEOFRANCE",
    "source": "Meteo-France DPObs /liste-stations",
    "raw": {
      "Id_station": "05070003",
      "Id_omm": "",
      "Nom_usuel": "LARAGNE MONTEGLIN",
      "Latitude": "44.319167",
      "Longitude": "5.794500",
      "Altitude": "565",
      "Date_ouverture": "1992-12-01",
      "Pack": "RADOME"
    }
  },
  {
    "id": "05077402",
    "id_station": "05077402",
    "id_omm": "",
    "name": "COL AGNEL-NIVOSE",
    "nom_usuel": "COL AGNEL-NIVOSE",
    "lat": 44.688667,
    "lon": 6.976167,
    "elev": 2627.0,
    "altitude": 2627.0,
    "date_ouverture": "1994-08-30",
    "pack": "ETENDU",
    "provider": "METEOFRANCE",
    "source": "Meteo-France DPObs /liste-stations",
    "raw": {
      "Id_station": "05077402",
      "Id_omm": "",
      "Nom_usuel": "COL AGNEL-NIVOSE",
      "Latitude": "44.688667",
      "Longitude": "6.976167",
      "Altitude": "2627",
      "Date_ouverture": "1994-08-30",
      "Pack": "ETENDU"
    }
  },
  {
    "id": "05079402",
    "id_station": "05079402",
    "id_omm": "",
    "name": "GALIBIER-NIVOSE",
    "nom_usuel": "GALIBIER-NIVOSE",
    "lat": 45.056833,
    "lon": 6.377167,
    "elev": 2559.0,
    "altitude": 2559.0,
    "date_ouverture": "2015-09-07",
    "pack": "ETENDU",
    "provider": "METEOFRANCE",
    "source": "Meteo-France DPObs /liste-stations",
    "raw": {
      "Id_station": "05079402",
      "Id_omm": "",
      "Nom_usuel": "GALIBIER-NIVOSE",
      "Latitude": "45.056833",
      "Longitude": "6.377167",
      "Altitude": "2559",
      "Date_ouverture": "2015-09-07",
      "Pack": "ETENDU"
    }
  },
  {
    "id": "05090002",
    "id_station": "05090002",
    "id_omm": "",
    "name": "MOTTE-MOLINES",
    "nom_usuel": "MOTTE-MOLINES",
    "lat": 44.748167,
    "lon": 6.122833,
    "elev": 1250.0,
    "altitude": 1250.0,
    "date_ouverture": "1940-01-01",
    "pack": "ETENDU",
    "provider": "METEOFRANCE",
    "source": "Meteo-France DPObs /liste-stations",
    "raw": {
      "Id_station": "05090002",
      "Id_omm": "",
      "Nom_usuel": "MOTTE-MOLINES",
      "Latitude": "44.748167",
      "Longitude": "6.122833",
      "Altitude": "1250",
      "Date_ouverture": "1940-01-01",
      "Pack": "ETENDU"
    }
  },
  {
    "id": "05096404",
    "id_station": "05096404",
    "id_omm": "",
    "name": "ORCIERES-NIVOSE",
    "nom_usuel": "ORCIERES-NIVOSE",
    "lat": 44.719,
    "lon": 6.333667,
    "elev": 2280.0,
    "altitude": 2280.0,
    "date_ouverture": "2006-12-21",
    "pack": "ETENDU",
    "provider": "METEOFRANCE",
    "source": "Meteo-France DPObs /liste-stations",
    "raw": {
      "Id_station": "05096404",
      "Id_omm": "",
      "Nom_usuel": "ORCIERES-NIVOSE",
      "Latitude": "44.719000",
      "Longitude": "6.333667",
      "Altitude": "2280",
      "Date_ouverture": "2006-12-21",
      "Pack": "ETENDU"
    }
  },
  {
    "id": "05098001",
    "id_station": "05098001",
    "id_omm": "",
    "name": "LES ORRES",
    "nom_usuel": "LES ORRES",
    "lat": 44.508833,
    "lon": 6.559333,
    "elev": 1457.0,
    "altitude": 1457.0,
    "date_ouverture": "1931-02-01",
    "pack": "ETENDU",
    "provider": "METEOFRANCE",
    "source": "Meteo-France DPObs /liste-stations",
    "raw": {
      "Id_station": "05098001",
      "Id_omm": "",
      "Nom_usuel": "LES ORRES",
      "Latitude": "44.508833",
      "Longitude": "6.559333",
      "Altitude": "1457",
      "Date_ouverture": "1931-02-01",
      "Pack": "ETENDU"
    }
  },
  {
    "id": "05101001",
    "id_station": "05101001",
    "id_omm": "07082",
    "name": "PELVOUX",
    "nom_usuel": "PELVOUX",
    "lat": 44.866833,
    "lon": 6.486667,
    "elev": 1270.0,
    "altitude": 1270.0,
    "date_ouverture": "1936-01-01",
    "pack": "ETENDU",
    "provider": "METEOFRANCE",
    "source": "Meteo-France DPObs /liste-stations",
    "raw": {
      "Id_station": "05101001",
      "Id_omm": "07082",
      "Nom_usuel": "PELVOUX",
      "Latitude": "44.866833",
      "Longitude": "6.486667",
      "Altitude": "1270",
      "Date_ouverture": "1936-01-01",
      "Pack": "ETENDU"
    }
  },
  {
    "id": "05110001",
    "id_station": "05110001",
    "id_omm": "",
    "name": "PUY-ST-VINCENT",
    "nom_usuel": "PUY-ST-VINCENT",
    "lat": 44.828833,
    "lon": 6.492667,
    "elev": 1388.0,
    "altitude": 1388.0,
    "date_ouverture": "1952-05-01",
    "pack": "ETENDU",
    "provider": "METEOFRANCE",
    "source": "Meteo-France DPObs /liste-stations",
    "raw": {
      "Id_station": "05110001",
      "Id_omm": "",
      "Nom_usuel": "PUY-ST-VINCENT",
      "Latitude": "44.828833",
      "Longitude": "6.492667",
      "Altitude": "1388",
      "Date_ouverture": "1952-05-01",
      "Pack": "ETENDU"
    }
  },
  {
    "id": "05120002",
    "id_station": "05120002",
    "id_omm": "",
    "name": "RISTOLAS",
    "nom_usuel": "RISTOLAS",
    "lat": 44.765667,
    "lon": 6.9845,
    "elev": 1670.0,
    "altitude": 1670.0,
    "date_ouverture": "2004-10-01",
    "pack": "RADOME",
    "provider": "METEOFRANCE",
    "source": "Meteo-France DPObs /liste-stations",
    "raw": {
      "Id_station": "05120002",
      "Id_omm": "",
      "Nom_usuel": "RISTOLAS",
      "Latitude": "44.765667",
      "Longitude": "6.984500",
      "Altitude": "1670",
      "Date_ouverture": "2004-10-01",
      "Pack": "RADOME"
    }
  },
  {
    "id": "05126001",
    "id_station": "05126001",
    "id_omm": "",
    "name": "ROSANS",
    "nom_usuel": "ROSANS",
    "lat": 44.3875,
    "lon": 5.462167,
    "elev": 625.0,
    "altitude": 625.0,
    "date_ouverture": "1971-12-01",
    "pack": "ETENDU",
    "provider": "METEOFRANCE",
    "source": "Meteo-France DPObs /liste-stations",
    "raw": {
      "Id_station": "05126001",
      "Id_omm": "",
      "Nom_usuel": "ROSANS",
      "Latitude": "44.387500",
      "Longitude": "5.462167",
      "Altitude": "625",
      "Date_ouverture": "1971-12-01",
      "Pack": "ETENDU"
    }
  },
  {
    "id": "05136002",
    "id_station": "05136002",
    "id_omm": "",
    "name": "ST CREPIN",
    "nom_usuel": "ST CREPIN",
    "lat": 44.7045,
    "lon": 6.6,
    "elev": 906.0,
    "altitude": 906.0,
    "date_ouverture": "2006-09-01",
    "pack": "RADOME",
    "provider": "METEOFRANCE",
    "source": "Meteo-France DPObs /liste-stations",
    "raw": {
      "Id_station": "05136002",
      "Id_omm": "",
      "Nom_usuel": "ST CREPIN",
      "Latitude": "44.704500",
      "Longitude": "6.600000",
      "Altitude": "906",
      "Date_ouverture": "2006-09-01",
      "Pack": "RADOME"
    }
  },
  {
    "id": "05139006",
    "id_station": "05139006",
    "id_omm": "07084",
    "name": "AGNIERES-EN-DEVOLUY",
    "nom_usuel": "AGNIERES-EN-DEVOLUY",
    "lat": 44.696167,
    "lon": 5.880833,
    "elev": 1244.0,
    "altitude": 1244.0,
    "date_ouverture": "1928-11-01",
    "pack": "ETENDU",
    "provider": "METEOFRANCE",
    "source": "Meteo-France DPObs /liste-stations",
    "raw": {
      "Id_station": "05139006",
      "Id_omm": "07084",
      "Nom_usuel": "AGNIERES-EN-DEVOLUY",
      "Latitude": "44.696167",
      "Longitude": "5.880833",
      "Altitude": "1244",
      "Date_ouverture": "1928-11-01",
      "Pack": "ETENDU"
    }
  },
  {
    "id": "05142001",
    "id_station": "05142001",
    "id_omm": "",
    "name": "ST FIRMIN",
    "nom_usuel": "ST FIRMIN",
    "lat": 44.7825,
    "lon": 6.035,
    "elev": 935.0,
    "altitude": 935.0,
    "date_ouverture": "1927-01-01",
    "pack": "ETENDU",
    "provider": "METEOFRANCE",
    "source": "Meteo-France DPObs /liste-stations",
    "raw": {
      "Id_station": "05142001",
      "Id_omm": "",
      "Nom_usuel": "ST FIRMIN",
      "Latitude": "44.782500",
      "Longitude": "6.035000",
      "Altitude": "935",
      "Date_ouverture": "1927-01-01",
      "Pack": "ETENDU"
    }
  },
  {
    "id": "05145002",
    "id_station": "05145002",
    "id_omm": "",
    "name": "ST JEAN-ST-NICOLAS",
    "nom_usuel": "ST JEAN-ST-NICOLAS",
    "lat": 44.670833,
    "lon": 6.209833,
    "elev": 1210.0,
    "altitude": 1210.0,
    "date_ouverture": "2003-08-01",
    "pack": "RADOME",
    "provider": "METEOFRANCE",
    "source": "Meteo-France DPObs /liste-stations",
    "raw": {
      "Id_station": "05145002",
      "Id_omm": "",
      "Nom_usuel": "ST JEAN-ST-NICOLAS",
      "Latitude": "44.670833",
      "Longitude": "6.209833",
      "Altitude": "1210",
      "Date_ouverture": "2003-08-01",
      "Pack": "RADOME"
    }
  },
  {
    "id": "05158001",
    "id_station": "05158001",
    "id_omm": "",
    "name": "LE SAIX",
    "nom_usuel": "LE SAIX",
    "lat": 44.475833,
    "lon": 5.8155,
    "elev": 801.0,
    "altitude": 801.0,
    "date_ouverture": "2003-05-01",
    "pack": "ETENDU",
    "provider": "METEOFRANCE",
    "source": "Meteo-France DPObs /liste-stations",
    "raw": {
      "Id_station": "05158001",
      "Id_omm": "",
      "Nom_usuel": "LE SAIX",
      "Latitude": "44.475833",
      "Longitude": "5.815500",
      "Altitude": "801",
      "Date_ouverture": "2003-05-01",
      "Pack": "ETENDU"
    }
  },
  {
    "id": "05170001",
    "id_station": "05170001",
    "id_omm": "",
    "name": "TALLARD",
    "nom_usuel": "TALLARD",
    "lat": 44.452167,
    "lon": 6.033333,
    "elev": 593.0,
    "altitude": 593.0,
    "date_ouverture": "1964-05-01",
    "pack": "RADOME",
    "provider": "METEOFRANCE",
    "source": "Meteo-France DPObs /liste-stations",
    "raw": {
      "Id_station": "05170001",
      "Id_omm": "",
      "Nom_usuel": "TALLARD",
      "Latitude": "44.452167",
      "Longitude": "6.033333",
      "Altitude": "593",
      "Date_ouverture": "1964-05-01",
      "Pack": "RADOME"
    }
  },
  {
    "id": "05179001",
    "id_station": "05179001",
    "id_omm": "",
    "name": "VEYNES",
    "nom_usuel": "VEYNES",
    "lat": 44.536333,
    "lon": 5.840667,
    "elev": 823.0,
    "altitude": 823.0,
    "date_ouverture": "1964-05-01",
    "pack": "ETENDU",
    "provider": "METEOFRANCE",
    "source": "Meteo-France DPObs /liste-stations",
    "raw": {
      "Id_station": "05179001",
      "Id_omm": "",
      "Nom_usuel": "VEYNES",
      "Latitude": "44.536333",
      "Longitude": "5.840667",
      "Altitude": "823",
      "Date_ouverture": "1964-05-01",
      "Pack": "ETENDU"
    }
  },
  {
    "id": "05181002",
    "id_station": "05181002",
    "id_omm": "",
    "name": "VILLAR D'ARENE",
    "nom_usuel": "VILLAR D'ARENE",
    "lat": 45.030833,
    "lon": 6.361667,
    "elev": 1665.0,
    "altitude": 1665.0,
    "date_ouverture": "2002-01-10",
    "pack": "RADOME",
    "provider": "METEOFRANCE",
    "source": "Meteo-France DPObs /liste-stations",
    "raw": {
      "Id_station": "05181002",
      "Id_omm": "",
      "Nom_usuel": "VILLAR D'ARENE",
      "Latitude": "45.030833",
      "Longitude": "6.361667",
      "Altitude": "1665",
      "Date_ouverture": "2002-01-10",
      "Pack": "RADOME"
    }
  },
  {
    "id": "05182001",
    "id_station": "05182001",
    "id_omm": "",
    "name": "VILLAR LOUBIERE",
    "nom_usuel": "VILLAR LOUBIERE",
    "lat": 44.826833,
    "lon": 6.146,
    "elev": 1072.0,
    "altitude": 1072.0,
    "date_ouverture": "1864-01-01",
    "pack": "ETENDU",
    "provider": "METEOFRANCE",
    "source": "Meteo-France DPObs /liste-stations",
    "raw": {
      "Id_station": "05182001",
      "Id_omm": "",
      "Nom_usuel": "VILLAR LOUBIERE",
      "Latitude": "44.826833",
      "Longitude": "6.146000",
      "Altitude": "1072",
      "Date_ouverture": "1864-01-01",
      "Pack": "ETENDU"
    }
  },
  {
    "id": "05183001",
    "id_station": "05183001",
    "id_omm": "07593",
    "name": "VILLAR ST PANCRACE",
    "nom_usuel": "VILLAR ST PANCRACE",
    "lat": 44.880333,
    "lon": 6.640333,
    "elev": 1310.0,
    "altitude": 1310.0,
    "date_ouverture": "2003-08-01",
    "pack": "RADOME",
    "provider": "METEOFRANCE",
    "source": "Meteo-France DPObs /liste-stations",
    "raw": {
      "Id_station": "05183001",
      "Id_omm": "07593",
      "Nom_usuel": "VILLAR ST PANCRACE",
      "Latitude": "44.880333",
      "Longitude": "6.640333",
      "Altitude": "1310",
      "Date_ouverture": "2003-08-01",
      "Pack": "RADOME"
    }
  },
  {
    "id": "06004002",
    "id_station": "06004002",
    "id_omm": "07688",
    "name": "ANTIBES-GAROUPE",
    "nom_usuel": "ANTIBES-GAROUPE",
    "lat": 43.564667,
    "lon": 7.133,
    "elev": 75.0,
    "altitude": 75.0,
    "date_ouverture": "1920-01-01",
    "pack": "ETENDU",
    "provider": "METEOFRANCE",
    "source": "Meteo-France DPObs /liste-stations",
    "raw": {
      "Id_station": "06004002",
      "Id_omm": "07688",
      "Nom_usuel": "ANTIBES-GAROUPE",
      "Latitude": "43.564667",
      "Longitude": "7.133000",
      "Altitude": "75",
      "Date_ouverture": "1920-01-01",
      "Pack": "ETENDU"
    }
  },
  {
    "id": "06004004",
    "id_station": "06004004",
    "id_omm": "",
    "name": "ANTIBES-GOLF",
    "nom_usuel": "ANTIBES-GOLF",
    "lat": 43.579667,
    "lon": 7.091167,
    "elev": 13.0,
    "altitude": 13.0,
    "date_ouverture": "1964-01-01",
    "pack": "ETENDU",
    "provider": "METEOFRANCE",
    "source": "Meteo-France DPObs /liste-stations",
    "raw": {
      "Id_station": "06004004",
      "Id_omm": "",
      "Nom_usuel": "ANTIBES-GOLF",
      "Latitude": "43.579667",
      "Longitude": "7.091167",
      "Altitude": "13",
      "Date_ouverture": "1964-01-01",
      "Pack": "ETENDU"
    }
  },
  {
    "id": "06004009",
    "id_station": "06004009",
    "id_omm": "",
    "name": "ANTIBES_SAPC",
    "nom_usuel": "ANTIBES_SAPC",
    "lat": 43.599167,
    "lon": 7.111167,
    "elev": 32.0,
    "altitude": 32.0,
    "date_ouverture": "1988-07-01",
    "pack": "ETENDU",
    "provider": "METEOFRANCE",
    "source": "Meteo-France DPObs /liste-stations",
    "raw": {
      "Id_station": "06004009",
      "Id_omm": "",
      "Nom_usuel": "ANTIBES_SAPC",
      "Latitude": "43.599167",
      "Longitude": "7.111167",
      "Altitude": "32",
      "Date_ouverture": "1988-07-01",
      "Pack": "ETENDU"
    }
  },
  {
    "id": "06005001",
    "id_station": "06005001",
    "id_omm": "",
    "name": "ASCROS",
    "nom_usuel": "ASCROS",
    "lat": 43.922,
    "lon": 7.013667,
    "elev": 1173.0,
    "altitude": 1173.0,
    "date_ouverture": "1987-08-01",
    "pack": "RADOME",
    "provider": "METEOFRANCE",
    "source": "Meteo-France DPObs /liste-stations",
    "raw": {
      "Id_station": "06005001",
      "Id_omm": "",
      "Nom_usuel": "ASCROS",
      "Latitude": "43.922000",
      "Longitude": "7.013667",
      "Altitude": "1173",
      "Date_ouverture": "1987-08-01",
      "Pack": "RADOME"
    }
  },
  {
    "id": "06016001",
    "id_station": "06016001",
    "id_omm": "",
    "name": "BEUIL-OBS",
    "nom_usuel": "BEUIL-OBS",
    "lat": 44.089833,
    "lon": 6.988,
    "elev": 1464.0,
    "altitude": 1464.0,
    "date_ouverture": "1917-03-01",
    "pack": "ETENDU",
    "provider": "METEOFRANCE",
    "source": "Meteo-France DPObs /liste-stations",
    "raw": {
      "Id_station": "06016001",
      "Id_omm": "",
      "Nom_usuel": "BEUIL-OBS",
      "Latitude": "44.089833",
      "Longitude": "6.988000",
      "Altitude": "1464",
      "Date_ouverture": "1917-03-01",
      "Pack": "ETENDU"
    }
  },
  {
    "id": "06023004",
    "id_station": "06023004",
    "id_omm": "",
    "name": "BREIL SUR ROYA",
    "nom_usuel": "BREIL SUR ROYA",
    "lat": 43.940167,
    "lon": 7.513667,
    "elev": 305.0,
    "altitude": 305.0,
    "date_ouverture": "1987-08-01",
    "pack": "ETENDU",
    "provider": "METEOFRANCE",
    "source": "Meteo-France DPObs /liste-stations",
    "raw": {
      "Id_station": "06023004",
      "Id_omm": "",
      "Nom_usuel": "BREIL SUR ROYA",
      "Latitude": "43.940167",
      "Longitude": "7.513667",
      "Altitude": "305",
      "Date_ouverture": "1987-08-01",
      "Pack": "ETENDU"
    }
  },
  {
    "id": "06029001",
    "id_station": "06029001",
    "id_omm": "07684",
    "name": "CANNES",
    "nom_usuel": "CANNES",
    "lat": 43.5565,
    "lon": 6.9505,
    "elev": 2.0,
    "altitude": 2.0,
    "date_ouverture": "1949-03-01",
    "pack": "RADOME",
    "provider": "METEOFRANCE",
    "source": "Meteo-France DPObs /liste-stations",
    "raw": {
      "Id_station": "06029001",
      "Id_omm": "07684",
      "Nom_usuel": "CANNES",
      "Latitude": "43.556500",
      "Longitude": "6.950500",
      "Altitude": "2",
      "Date_ouverture": "1949-03-01",
      "Pack": "RADOME"
    }
  },
  {
    "id": "06033002",
    "id_station": "06033002",
    "id_omm": "",
    "name": "CARROS_SAPC",
    "nom_usuel": "CARROS_SAPC",
    "lat": 43.786667,
    "lon": 7.209167,
    "elev": 78.0,
    "altitude": 78.0,
    "date_ouverture": "1991-03-01",
    "pack": "ETENDU",
    "provider": "METEOFRANCE",
    "source": "Meteo-France DPObs /liste-stations",
    "raw": {
      "Id_station": "06033002",
      "Id_omm": "",
      "Nom_usuel": "CARROS_SAPC",
      "Latitude": "43.786667",
      "Longitude": "7.209167",
      "Altitude": "78",
      "Date_ouverture": "1991-03-01",
      "Pack": "ETENDU"
    }
  },
  {
    "id": "06037002",
    "id_station": "06037002",
    "id_omm": "",
    "name": "CAUSSOLS",
    "nom_usuel": "CAUSSOLS",
    "lat": 43.752333,
    "lon": 6.923167,
    "elev": 1268.0,
    "altitude": 1268.0,
    "date_ouverture": "1987-08-01",
    "pack": "ETENDU",
    "provider": "METEOFRANCE",
    "source": "Meteo-France DPObs /liste-stations",
    "raw": {
      "Id_station": "06037002",
      "Id_omm": "",
      "Nom_usuel": "CAUSSOLS",
      "Latitude": "43.752333",
      "Longitude": "6.923167",
      "Altitude": "1268",
      "Date_ouverture": "1987-08-01",
      "Pack": "ETENDU"
    }
  },
  {
    "id": "06038001",
    "id_station": "06038001",
    "id_omm": "",
    "name": "CHATEAUNEUF GRASSE",
    "nom_usuel": "CHATEAUNEUF GRASSE",
    "lat": 43.678333,
    "lon": 6.996167,
    "elev": 379.0,
    "altitude": 379.0,
    "date_ouverture": "2012-09-17",
    "pack": "ETENDU",
    "provider": "METEOFRANCE",
    "source": "Meteo-France DPObs /liste-stations",
    "raw": {
      "Id_station": "06038001",
      "Id_omm": "",
      "Nom_usuel": "CHATEAUNEUF GRASSE",
      "Latitude": "43.678333",
      "Longitude": "6.996167",
      "Altitude": "379",
      "Date_ouverture": "2012-09-17",
      "Pack": "ETENDU"
    }
  },
  {
    "id": "06050002",
    "id_station": "06050002",
    "id_omm": "",
    "name": "COURSEGOULES_SAPC",
    "nom_usuel": "COURSEGOULES_SAPC",
    "lat": 43.792,
    "lon": 7.0485,
    "elev": 985.0,
    "altitude": 985.0,
    "date_ouverture": "1989-08-01",
    "pack": "ETENDU",
    "provider": "METEOFRANCE",
    "source": "Meteo-France DPObs /liste-stations",
    "raw": {
      "Id_station": "06050002",
      "Id_omm": "",
      "Nom_usuel": "COURSEGOULES_SAPC",
      "Latitude": "43.792000",
      "Longitude": "7.048500",
      "Altitude": "985",
      "Date_ouverture": "1989-08-01",
      "Pack": "ETENDU"
    }
  },
  {
    "id": "06059003",
    "id_station": "06059003",
    "id_omm": "",
    "name": "EZE",
    "nom_usuel": "EZE",
    "lat": 43.738833,
    "lon": 7.365833,
    "elev": 704.0,
    "altitude": 704.0,
    "date_ouverture": "1991-06-01",
    "pack": "ETENDU",
    "provider": "METEOFRANCE",
    "source": "Meteo-France DPObs /liste-stations",
    "raw": {
      "Id_station": "06059003",
      "Id_omm": "",
      "Nom_usuel": "EZE",
      "Latitude": "43.738833",
      "Longitude": "7.365833",
      "Altitude": "704",
      "Date_ouverture": "1991-06-01",
      "Pack": "ETENDU"
    }
  },
  {
    "id": "06071001",
    "id_station": "06071001",
    "id_omm": "",
    "name": "GUILLAUMES-OBS",
    "nom_usuel": "GUILLAUMES-OBS",
    "lat": 44.090667,
    "lon": 6.852333,
    "elev": 788.0,
    "altitude": 788.0,
    "date_ouverture": "1907-03-01",
    "pack": "ETENDU",
    "provider": "METEOFRANCE",
    "source": "Meteo-France DPObs /liste-stations",
    "raw": {
      "Id_station": "06071001",
      "Id_omm": "",
      "Nom_usuel": "GUILLAUMES-OBS",
      "Latitude": "44.090667",
      "Longitude": "6.852333",
      "Altitude": "788",
      "Date_ouverture": "1907-03-01",
      "Pack": "ETENDU"
    }
  },
  {
    "id": "06073005",
    "id_station": "06073005",
    "id_omm": "",
    "name": "ISOLA 2000",
    "nom_usuel": "ISOLA 2000",
    "lat": 44.1895,
    "lon": 7.149,
    "elev": 1912.0,
    "altitude": 1912.0,
    "date_ouverture": "1972-01-01",
    "pack": "ETENDU",
    "provider": "METEOFRANCE",
    "source": "Meteo-France DPObs /liste-stations",
    "raw": {
      "Id_station": "06073005",
      "Id_omm": "",
      "Nom_usuel": "ISOLA 2000",
      "Latitude": "44.189500",
      "Longitude": "7.149000",
      "Altitude": "1912",
      "Date_ouverture": "1972-01-01",
      "Pack": "ETENDU"
    }
  },
  {
    "id": "06074005",
    "id_station": "06074005",
    "id_omm": "",
    "name": "LANTOSQUE_SAPC",
    "nom_usuel": "LANTOSQUE_SAPC",
    "lat": 43.972,
    "lon": 7.307,
    "elev": 550.0,
    "altitude": 550.0,
    "date_ouverture": "2006-10-25",
    "pack": "ETENDU",
    "provider": "METEOFRANCE",
    "source": "Meteo-France DPObs /liste-stations",
    "raw": {
      "Id_station": "06074005",
      "Id_omm": "",
      "Nom_usuel": "LANTOSQUE_SAPC",
      "Latitude": "43.972000",
      "Longitude": "7.307000",
      "Altitude": "550",
      "Date_ouverture": "2006-10-25",
      "Pack": "ETENDU"
    }
  },
  {
    "id": "06075007",
    "id_station": "06075007",
    "id_omm": "",
    "name": "LEVENS",
    "nom_usuel": "LEVENS",
    "lat": 43.846333,
    "lon": 7.21,
    "elev": 691.0,
    "altitude": 691.0,
    "date_ouverture": "2008-05-16",
    "pack": "ETENDU",
    "provider": "METEOFRANCE",
    "source": "Meteo-France DPObs /liste-stations",
    "raw": {
      "Id_station": "06075007",
      "Id_omm": "",
      "Nom_usuel": "LEVENS",
      "Latitude": "43.846333",
      "Longitude": "7.210000",
      "Altitude": "691",
      "Date_ouverture": "2008-05-16",
      "Pack": "ETENDU"
    }
  },
  {
    "id": "06077006",
    "id_station": "06077006",
    "id_omm": "",
    "name": "PEIRA CAVA",
    "nom_usuel": "PEIRA CAVA",
    "lat": 43.929167,
    "lon": 7.363333,
    "elev": 1443.0,
    "altitude": 1443.0,
    "date_ouverture": "1989-08-01",
    "pack": "RADOME",
    "provider": "METEOFRANCE",
    "source": "Meteo-France DPObs /liste-stations",
    "raw": {
      "Id_station": "06077006",
      "Id_omm": "",
      "Nom_usuel": "PEIRA CAVA",
      "Latitude": "43.929167",
      "Longitude": "7.363333",
      "Altitude": "1443",
      "Date_ouverture": "1989-08-01",
      "Pack": "RADOME"
    }
  },
  {
    "id": "06079002",
    "id_station": "06079002",
    "id_omm": "",
    "name": "MANDELIEU LA NAPOULE_SAPC",
    "nom_usuel": "MANDELIEU LA NAPOULE_SAPC",
    "lat": 43.523667,
    "lon": 6.898667,
    "elev": 104.0,
    "altitude": 104.0,
    "date_ouverture": "1988-07-01",
    "pack": "ETENDU",
    "provider": "METEOFRANCE",
    "source": "Meteo-France DPObs /liste-stations",
    "raw": {
      "Id_station": "06079002",
      "Id_omm": "",
      "Nom_usuel": "MANDELIEU LA NAPOULE_SAPC",
      "Latitude": "43.523667",
      "Longitude": "6.898667",
      "Altitude": "104",
      "Date_ouverture": "1988-07-01",
      "Pack": "ETENDU"
    }
  },
  {
    "id": "06081001",
    "id_station": "06081001",
    "id_omm": "",
    "name": "LE MAS",
    "nom_usuel": "LE MAS",
    "lat": 43.813667,
    "lon": 6.809333,
    "elev": 1525.0,
    "altitude": 1525.0,
    "date_ouverture": "2006-04-02",
    "pack": "RADOME",
    "provider": "METEOFRANCE",
    "source": "Meteo-France DPObs /liste-stations",
    "raw": {
      "Id_station": "06081001",
      "Id_omm": "",
      "Nom_usuel": "LE MAS",
      "Latitude": "43.813667",
      "Longitude": "6.809333",
      "Altitude": "1525",
      "Date_ouverture": "2006-04-02",
      "Pack": "RADOME"
    }
  },
  {
    "id": "06083005",
    "id_station": "06083005",
    "id_omm": "",
    "name": "MENTON",
    "nom_usuel": "MENTON",
    "lat": 43.785833,
    "lon": 7.488667,
    "elev": 216.0,
    "altitude": 216.0,
    "date_ouverture": "1988-08-01",
    "pack": "ETENDU",
    "provider": "METEOFRANCE",
    "source": "Meteo-France DPObs /liste-stations",
    "raw": {
      "Id_station": "06083005",
      "Id_omm": "",
      "Nom_usuel": "MENTON",
      "Latitude": "43.785833",
      "Longitude": "7.488667",
      "Altitude": "216",
      "Date_ouverture": "1988-08-01",
      "Pack": "ETENDU"
    }
  },
  {
    "id": "06086001",
    "id_station": "06086001",
    "id_omm": "",
    "name": "MOULINET",
    "nom_usuel": "MOULINET",
    "lat": 43.942,
    "lon": 7.414667,
    "elev": 817.0,
    "altitude": 817.0,
    "date_ouverture": "1950-03-01",
    "pack": "ETENDU",
    "provider": "METEOFRANCE",
    "source": "Meteo-France DPObs /liste-stations",
    "raw": {
      "Id_station": "06086001",
      "Id_omm": "",
      "Nom_usuel": "MOULINET",
      "Latitude": "43.942000",
      "Longitude": "7.414667",
      "Altitude": "817",
      "Date_ouverture": "1950-03-01",
      "Pack": "ETENDU"
    }
  },
  {
    "id": "06088001",
    "id_station": "06088001",
    "id_omm": "07690",
    "name": "NICE",
    "nom_usuel": "NICE",
    "lat": 43.648833,
    "lon": 7.209,
    "elev": 2.0,
    "altitude": 2.0,
    "date_ouverture": "1942-07-01",
    "pack": "RADOME",
    "provider": "METEOFRANCE",
    "source": "Meteo-France DPObs /liste-stations",
    "raw": {
      "Id_station": "06088001",
      "Id_omm": "07690",
      "Nom_usuel": "NICE",
      "Latitude": "43.648833",
      "Longitude": "7.209000",
      "Altitude": "2",
      "Date_ouverture": "1942-07-01",
      "Pack": "RADOME"
    }
  },
  {
    "id": "06088007",
    "id_station": "06088007",
    "id_omm": "",
    "name": "NICE-RIMIEZ",
    "nom_usuel": "NICE-RIMIEZ",
    "lat": 43.738667,
    "lon": 7.279167,
    "elev": 238.0,
    "altitude": 238.0,
    "date_ouverture": "1949-12-01",
    "pack": "ETENDU",
    "provider": "METEOFRANCE",
    "source": "Meteo-France DPObs /liste-stations",
    "raw": {
      "Id_station": "06088007",
      "Id_omm": "",
      "Nom_usuel": "NICE-RIMIEZ",
      "Latitude": "43.738667",
      "Longitude": "7.279167",
      "Altitude": "238",
      "Date_ouverture": "1949-12-01",
      "Pack": "ETENDU"
    }
  },
  {
    "id": "06090002",
    "id_station": "06090002",
    "id_omm": "",
    "name": "PEGOMAS",
    "nom_usuel": "PEGOMAS",
    "lat": 43.602667,
    "lon": 6.936667,
    "elev": 109.0,
    "altitude": 109.0,
    "date_ouverture": "2010-03-15",
    "pack": "ETENDU",
    "provider": "METEOFRANCE",
    "source": "Meteo-France DPObs /liste-stations",
    "raw": {
      "Id_station": "06090002",
      "Id_omm": "",
      "Nom_usuel": "PEGOMAS",
      "Latitude": "43.602667",
      "Longitude": "6.936667",
      "Altitude": "109",
      "Date_ouverture": "2010-03-15",
      "Pack": "ETENDU"
    }
  },
  {
    "id": "06091003",
    "id_station": "06091003",
    "id_omm": "",
    "name": "PEILLE",
    "nom_usuel": "PEILLE",
    "lat": 43.775167,
    "lon": 7.428333,
    "elev": 1106.0,
    "altitude": 1106.0,
    "date_ouverture": "1987-08-01",
    "pack": "RADOME",
    "provider": "METEOFRANCE",
    "source": "Meteo-France DPObs /liste-stations",
    "raw": {
      "Id_station": "06091003",
      "Id_omm": "",
      "Nom_usuel": "PEILLE",
      "Latitude": "43.775167",
      "Longitude": "7.428333",
      "Altitude": "1106",
      "Date_ouverture": "1987-08-01",
      "Pack": "RADOME"
    }
  },
  {
    "id": "06094002",
    "id_station": "06094002",
    "id_omm": "",
    "name": "PEONE",
    "nom_usuel": "PEONE",
    "lat": 44.099667,
    "lon": 6.930833,
    "elev": 1784.0,
    "altitude": 1784.0,
    "date_ouverture": "2002-11-01",
    "pack": "RADOME",
    "provider": "METEOFRANCE",
    "source": "Meteo-France DPObs /liste-stations",
    "raw": {
      "Id_station": "06094002",
      "Id_omm": "",
      "Nom_usuel": "PEONE",
      "Latitude": "44.099667",
      "Longitude": "6.930833",
      "Altitude": "1784",
      "Date_ouverture": "2002-11-01",
      "Pack": "RADOME"
    }
  },
  {
    "id": "06099004",
    "id_station": "06099004",
    "id_omm": "",
    "name": "PUGET THENIERS_SAPC",
    "nom_usuel": "PUGET THENIERS_SAPC",
    "lat": 43.956833,
    "lon": 6.892333,
    "elev": 449.0,
    "altitude": 449.0,
    "date_ouverture": "1991-05-01",
    "pack": "ETENDU",
    "provider": "METEOFRANCE",
    "source": "Meteo-France DPObs /liste-stations",
    "raw": {
      "Id_station": "06099004",
      "Id_omm": "",
      "Nom_usuel": "PUGET THENIERS_SAPC",
      "Latitude": "43.956833",
      "Longitude": "6.892333",
      "Altitude": "449",
      "Date_ouverture": "1991-05-01",
      "Pack": "ETENDU"
    }
  },
  {
    "id": "06102001",
    "id_station": "06102001",
    "id_omm": "",
    "name": "RIMPLAS_SAPC",
    "nom_usuel": "RIMPLAS_SAPC",
    "lat": 44.067167,
    "lon": 7.1335,
    "elev": 1130.0,
    "altitude": 1130.0,
    "date_ouverture": "2006-10-25",
    "pack": "ETENDU",
    "provider": "METEOFRANCE",
    "source": "Meteo-France DPObs /liste-stations",
    "raw": {
      "Id_station": "06102001",
      "Id_omm": "",
      "Nom_usuel": "RIMPLAS_SAPC",
      "Latitude": "44.067167",
      "Longitude": "7.133500",
      "Altitude": "1130",
      "Date_ouverture": "2006-10-25",
      "Pack": "ETENDU"
    }
  },
  {
    "id": "06103002",
    "id_station": "06103002",
    "id_omm": "",
    "name": "BERTHEMONT-LES-BAINS_SAPC",
    "nom_usuel": "BERTHEMONT-LES-BAINS_SAPC",
    "lat": 44.044333,
    "lon": 7.300833,
    "elev": 938.0,
    "altitude": 938.0,
    "date_ouverture": "2023-01-24",
    "pack": "ETENDU",
    "provider": "METEOFRANCE",
    "source": "Meteo-France DPObs /liste-stations",
    "raw": {
      "Id_station": "06103002",
      "Id_omm": "",
      "Nom_usuel": "BERTHEMONT-LES-BAINS_SAPC",
      "Latitude": "44.044333",
      "Longitude": "7.300833",
      "Altitude": "938",
      "Date_ouverture": "2023-01-24",
      "Pack": "ETENDU"
    }
  },
  {
    "id": "06118002",
    "id_station": "06118002",
    "id_omm": "",
    "name": "ST CEZAIRE SUR SIAGNE",
    "nom_usuel": "ST CEZAIRE SUR SIAGNE",
    "lat": 43.678667,
    "lon": 6.809,
    "elev": 694.0,
    "altitude": 694.0,
    "date_ouverture": "2005-11-01",
    "pack": "RADOME",
    "provider": "METEOFRANCE",
    "source": "Meteo-France DPObs /liste-stations",
    "raw": {
      "Id_station": "06118002",
      "Id_omm": "",
      "Nom_usuel": "ST CEZAIRE SUR SIAGNE",
      "Latitude": "43.678667",
      "Longitude": "6.809000",
      "Altitude": "694",
      "Date_ouverture": "2005-11-01",
      "Pack": "RADOME"
    }
  },
  {
    "id": "06120004",
    "id_station": "06120004",
    "id_omm": "",
    "name": "ST ETIENNE DE TINEE_SAPC",
    "nom_usuel": "ST ETIENNE DE TINEE_SAPC",
    "lat": 44.257667,
    "lon": 6.921167,
    "elev": 1150.0,
    "altitude": 1150.0,
    "date_ouverture": "2006-11-27",
    "pack": "ETENDU",
    "provider": "METEOFRANCE",
    "source": "Meteo-France DPObs /liste-stations",
    "raw": {
      "Id_station": "06120004",
      "Id_omm": "",
      "Nom_usuel": "ST ETIENNE DE TINEE_SAPC",
      "Latitude": "44.257667",
      "Longitude": "6.921167",
      "Altitude": "1150",
      "Date_ouverture": "2006-11-27",
      "Pack": "ETENDU"
    }
  },
  {
    "id": "06125001",
    "id_station": "06125001",
    "id_omm": "",
    "name": "ST MARTIN D'ENTRAUNES_SAPC",
    "nom_usuel": "ST MARTIN D'ENTRAUNES_SAPC",
    "lat": 44.154667,
    "lon": 6.747,
    "elev": 1642.0,
    "altitude": 1642.0,
    "date_ouverture": "2007-05-07",
    "pack": "ETENDU",
    "provider": "METEOFRANCE",
    "source": "Meteo-France DPObs /liste-stations",
    "raw": {
      "Id_station": "06125001",
      "Id_omm": "",
      "Nom_usuel": "ST MARTIN D'ENTRAUNES_SAPC",
      "Latitude": "44.154667",
      "Longitude": "6.747000",
      "Altitude": "1642",
      "Date_ouverture": "2007-05-07",
      "Pack": "ETENDU"
    }
  },
  {
    "id": "06136005",
    "id_station": "06136005",
    "id_omm": "",
    "name": "SOSPEL",
    "nom_usuel": "SOSPEL",
    "lat": 43.862833,
    "lon": 7.433667,
    "elev": 843.0,
    "altitude": 843.0,
    "date_ouverture": "2004-11-01",
    "pack": "RADOME",
    "provider": "METEOFRANCE",
    "source": "Meteo-France DPObs /liste-stations",
    "raw": {
      "Id_station": "06136005",
      "Id_omm": "",
      "Nom_usuel": "SOSPEL",
      "Latitude": "43.862833",
      "Longitude": "7.433667",
      "Altitude": "843",
      "Date_ouverture": "2004-11-01",
      "Pack": "RADOME"
    }
  },
  {
    "id": "06152002",
    "id_station": "06152002",
    "id_omm": "",
    "name": "VALBONNE-SOPHIA",
    "nom_usuel": "VALBONNE-SOPHIA",
    "lat": 43.623167,
    "lon": 7.0285,
    "elev": 238.0,
    "altitude": 238.0,
    "date_ouverture": "1987-07-01",
    "pack": "ETENDU",
    "provider": "METEOFRANCE",
    "source": "Meteo-France DPObs /liste-stations",
    "raw": {
      "Id_station": "06152002",
      "Id_omm": "",
      "Nom_usuel": "VALBONNE-SOPHIA",
      "Latitude": "43.623167",
      "Longitude": "7.028500",
      "Altitude": "238",
      "Date_ouverture": "1987-07-01",
      "Pack": "ETENDU"
    }
  },
  {
    "id": "06153400",
    "id_station": "06153400",
    "id_omm": "",
    "name": "MILLEFONTS-NIVOSE",
    "nom_usuel": "MILLEFONTS-NIVOSE",
    "lat": 44.118333,
    "lon": 7.192,
    "elev": 2430.0,
    "altitude": 2430.0,
    "date_ouverture": "2007-09-26",
    "pack": "ETENDU",
    "provider": "METEOFRANCE",
    "source": "Meteo-France DPObs /liste-stations",
    "raw": {
      "Id_station": "06153400",
      "Id_omm": "",
      "Nom_usuel": "MILLEFONTS-NIVOSE",
      "Latitude": "44.118333",
      "Longitude": "7.192000",
      "Altitude": "2430",
      "Date_ouverture": "2007-09-26",
      "Pack": "ETENDU"
    }
  },
  {
    "id": "06163001",
    "id_station": "06163001",
    "id_omm": "",
    "name": "TENDE-OBS",
    "nom_usuel": "TENDE-OBS",
    "lat": 44.086667,
    "lon": 7.595,
    "elev": 792.0,
    "altitude": 792.0,
    "date_ouverture": "1952-09-01",
    "pack": "ETENDU",
    "provider": "METEOFRANCE",
    "source": "Meteo-France DPObs /liste-stations",
    "raw": {
      "Id_station": "06163001",
      "Id_omm": "",
      "Nom_usuel": "TENDE-OBS",
      "Latitude": "44.086667",
      "Longitude": "7.595000",
      "Altitude": "792",
      "Date_ouverture": "1952-09-01",
      "Pack": "ETENDU"
    }
  },
  {
    "id": "06163007",
    "id_station": "06163007",
    "id_omm": "",
    "name": "TENDE_SAPC",
    "nom_usuel": "TENDE_SAPC",
    "lat": 44.043167,
    "lon": 7.586,
    "elev": 636.0,
    "altitude": 636.0,
    "date_ouverture": "1989-07-01",
    "pack": "ETENDU",
    "provider": "METEOFRANCE",
    "source": "Meteo-France DPObs /liste-stations",
    "raw": {
      "Id_station": "06163007",
      "Id_omm": "",
      "Nom_usuel": "TENDE_SAPC",
      "Latitude": "44.043167",
      "Longitude": "7.586000",
      "Altitude": "636",
      "Date_ouverture": "1989-07-01",
      "Pack": "ETENDU"
    }
  },
  {
    "id": "07005001",
    "id_station": "07005001",
    "id_omm": "",
    "name": "ALBA LA ROMAINE",
    "nom_usuel": "ALBA LA ROMAINE",
    "lat": 44.539833,
    "lon": 4.5825,
    "elev": 223.0,
    "altitude": 223.0,
    "date_ouverture": "1948-09-01",
    "pack": "ETENDU",
    "provider": "METEOFRANCE",
    "source": "Meteo-France DPObs /liste-stations",
    "raw": {
      "Id_station": "07005001",
      "Id_omm": "",
      "Nom_usuel": "ALBA LA ROMAINE",
      "Latitude": "44.539833",
      "Longitude": "4.582500",
      "Altitude": "223",
      "Date_ouverture": "1948-09-01",
      "Pack": "ETENDU"
    }
  },
  {
    "id": "07010001",
    "id_station": "07010001",
    "id_omm": "",
    "name": "ANNONAY",
    "nom_usuel": "ANNONAY",
    "lat": 45.246167,
    "lon": 4.6705,
    "elev": 336.0,
    "altitude": 336.0,
    "date_ouverture": "1973-07-01",
    "pack": "ETENDU",
    "provider": "METEOFRANCE",
    "source": "Meteo-France DPObs /liste-stations",
    "raw": {
      "Id_station": "07010001",
      "Id_omm": "",
      "Nom_usuel": "ANNONAY",
      "Latitude": "45.246167",
      "Longitude": "4.670500",
      "Altitude": "336",
      "Date_ouverture": "1973-07-01",
      "Pack": "ETENDU"
    }
  },
  {
    "id": "07011002",
    "id_station": "07011002",
    "id_omm": "",
    "name": "ANTRAIGUES",
    "nom_usuel": "ANTRAIGUES",
    "lat": 44.719167,
    "lon": 4.352167,
    "elev": 428.0,
    "altitude": 428.0,
    "date_ouverture": "1953-01-01",
    "pack": "ETENDU",
    "provider": "METEOFRANCE",
    "source": "Meteo-France DPObs /liste-stations",
    "raw": {
      "Id_station": "07011002",
      "Id_omm": "",
      "Nom_usuel": "ANTRAIGUES",
      "Latitude": "44.719167",
      "Longitude": "4.352167",
      "Altitude": "428",
      "Date_ouverture": "1953-01-01",
      "Pack": "ETENDU"
    }
  },
  {
    "id": "07019005",
    "id_station": "07019005",
    "id_omm": "",
    "name": "AUBENAS SA",
    "nom_usuel": "AUBENAS SA",
    "lat": 44.601667,
    "lon": 4.409833,
    "elev": 176.0,
    "altitude": 176.0,
    "date_ouverture": "1969-07-01",
    "pack": "ETENDU",
    "provider": "METEOFRANCE",
    "source": "Meteo-France DPObs /liste-stations",
    "raw": {
      "Id_station": "07019005",
      "Id_omm": "",
      "Nom_usuel": "AUBENAS SA",
      "Latitude": "44.601667",
      "Longitude": "4.409833",
      "Altitude": "176",
      "Date_ouverture": "1969-07-01",
      "Pack": "ETENDU"
    }
  },
  {
    "id": "07025001",
    "id_station": "07025001",
    "id_omm": "",
    "name": "BARNAS RAD",
    "nom_usuel": "BARNAS RAD",
    "lat": 44.666,
    "lon": 4.159833,
    "elev": 480.0,
    "altitude": 480.0,
    "date_ouverture": "1990-01-01",
    "pack": "RADOME",
    "provider": "METEOFRANCE",
    "source": "Meteo-France DPObs /liste-stations",
    "raw": {
      "Id_station": "07025001",
      "Id_omm": "",
      "Nom_usuel": "BARNAS RAD",
      "Latitude": "44.666000",
      "Longitude": "4.159833",
      "Altitude": "480",
      "Date_ouverture": "1990-01-01",
      "Pack": "RADOME"
    }
  },
  {
    "id": "07032002",
    "id_station": "07032002",
    "id_omm": "",
    "name": "BERZEME RAD",
    "nom_usuel": "BERZEME RAD",
    "lat": 44.628333,
    "lon": 4.566333,
    "elev": 650.0,
    "altitude": 650.0,
    "date_ouverture": "1988-05-01",
    "pack": "RADOME",
    "provider": "METEOFRANCE",
    "source": "Meteo-France DPObs /liste-stations",
    "raw": {
      "Id_station": "07032002",
      "Id_omm": "",
      "Nom_usuel": "BERZEME RAD",
      "Latitude": "44.628333",
      "Longitude": "4.566333",
      "Altitude": "650",
      "Date_ouverture": "1988-05-01",
      "Pack": "RADOME"
    }
  },
  {
    "id": "07033001",
    "id_station": "07033001",
    "id_omm": "",
    "name": "BESSAS",
    "nom_usuel": "BESSAS",
    "lat": 44.34,
    "lon": 4.298667,
    "elev": 251.0,
    "altitude": 251.0,
    "date_ouverture": "1933-11-01",
    "pack": "ETENDU",
    "provider": "METEOFRANCE",
    "source": "Meteo-France DPObs /liste-stations",
    "raw": {
      "Id_station": "07033001",
      "Id_omm": "",
      "Nom_usuel": "BESSAS",
      "Latitude": "44.340000",
      "Longitude": "4.298667",
      "Altitude": "251",
      "Date_ouverture": "1933-11-01",
      "Pack": "ETENDU"
    }
  },
  {
    "id": "07064001",
    "id_station": "07064001",
    "id_omm": "",
    "name": "CHEYLARD SA",
    "nom_usuel": "CHEYLARD SA",
    "lat": 44.914833,
    "lon": 4.4375,
    "elev": 418.0,
    "altitude": 418.0,
    "date_ouverture": "1900-01-01",
    "pack": "ETENDU",
    "provider": "METEOFRANCE",
    "source": "Meteo-France DPObs /liste-stations",
    "raw": {
      "Id_station": "07064001",
      "Id_omm": "",
      "Nom_usuel": "CHEYLARD SA",
      "Latitude": "44.914833",
      "Longitude": "4.437500",
      "Altitude": "418",
      "Date_ouverture": "1900-01-01",
      "Pack": "ETENDU"
    }
  },
  {
    "id": "07066001",
    "id_station": "07066001",
    "id_omm": "",
    "name": "CHOMERAC SA_RCE",
    "nom_usuel": "CHOMERAC SA_RCE",
    "lat": 44.6995,
    "lon": 4.648333,
    "elev": 216.0,
    "altitude": 216.0,
    "date_ouverture": "1970-07-01",
    "pack": "ETENDU",
    "provider": "METEOFRANCE",
    "source": "Meteo-France DPObs /liste-stations",
    "raw": {
      "Id_station": "07066001",
      "Id_omm": "",
      "Nom_usuel": "CHOMERAC SA_RCE",
      "Latitude": "44.699500",
      "Longitude": "4.648333",
      "Altitude": "216",
      "Date_ouverture": "1970-07-01",
      "Pack": "ETENDU"
    }
  },
  {
    "id": "07068001",
    "id_station": "07068001",
    "id_omm": "",
    "name": "COLOMBIER JEUNE RAD",
    "nom_usuel": "COLOMBIER JEUNE RAD",
    "lat": 45.0155,
    "lon": 4.671167,
    "elev": 566.0,
    "altitude": 566.0,
    "date_ouverture": "1972-10-01",
    "pack": "RADOME",
    "provider": "METEOFRANCE",
    "source": "Meteo-France DPObs /liste-stations",
    "raw": {
      "Id_station": "07068001",
      "Id_omm": "",
      "Nom_usuel": "COLOMBIER JEUNE RAD",
      "Latitude": "45.015500",
      "Longitude": "4.671167",
      "Altitude": "566",
      "Date_ouverture": "1972-10-01",
      "Pack": "RADOME"
    }
  },
  {
    "id": "07075001",
    "id_station": "07075001",
    "id_omm": "",
    "name": "CROS GEORAND",
    "nom_usuel": "CROS GEORAND",
    "lat": 44.780167,
    "lon": 4.099667,
    "elev": 1021.0,
    "altitude": 1021.0,
    "date_ouverture": "1952-01-01",
    "pack": "ETENDU",
    "provider": "METEOFRANCE",
    "source": "Meteo-France DPObs /liste-stations",
    "raw": {
      "Id_station": "07075001",
      "Id_omm": "",
      "Nom_usuel": "CROS GEORAND",
      "Latitude": "44.780167",
      "Longitude": "4.099667",
      "Altitude": "1021",
      "Date_ouverture": "1952-01-01",
      "Pack": "ETENDU"
    }
  },
  {
    "id": "07096001",
    "id_station": "07096001",
    "id_omm": "",
    "name": "GLUIRAS RAD",
    "nom_usuel": "GLUIRAS RAD",
    "lat": 44.839333,
    "lon": 4.524,
    "elev": 760.0,
    "altitude": 760.0,
    "date_ouverture": "2004-12-01",
    "pack": "RADOME",
    "provider": "METEOFRANCE",
    "source": "Meteo-France DPObs /liste-stations",
    "raw": {
      "Id_station": "07096001",
      "Id_omm": "",
      "Nom_usuel": "GLUIRAS RAD",
      "Latitude": "44.839333",
      "Longitude": "4.524000",
      "Altitude": "760",
      "Date_ouverture": "2004-12-01",
      "Pack": "RADOME"
    }
  },
  {
    "id": "07099001",
    "id_station": "07099001",
    "id_omm": "",
    "name": "GRAS",
    "nom_usuel": "GRAS",
    "lat": 44.429,
    "lon": 4.5655,
    "elev": 341.0,
    "altitude": 341.0,
    "date_ouverture": "1984-01-01",
    "pack": "ETENDU",
    "provider": "METEOFRANCE",
    "source": "Meteo-France DPObs /liste-stations",
    "raw": {
      "Id_station": "07099001",
      "Id_omm": "",
      "Nom_usuel": "GRAS",
      "Latitude": "44.429000",
      "Longitude": "4.565500",
      "Altitude": "341",
      "Date_ouverture": "1984-01-01",
      "Pack": "ETENDU"
    }
  },
  {
    "id": "07101001",
    "id_station": "07101001",
    "id_omm": "",
    "name": "GROSPIERRES",
    "nom_usuel": "GROSPIERRES",
    "lat": 44.411333,
    "lon": 4.300833,
    "elev": 127.0,
    "altitude": 127.0,
    "date_ouverture": "1978-08-01",
    "pack": "ETENDU",
    "provider": "METEOFRANCE",
    "source": "Meteo-France DPObs /liste-stations",
    "raw": {
      "Id_station": "07101001",
      "Id_omm": "",
      "Nom_usuel": "GROSPIERRES",
      "Latitude": "44.411333",
      "Longitude": "4.300833",
      "Altitude": "127",
      "Date_ouverture": "1978-08-01",
      "Pack": "ETENDU"
    }
  },
  {
    "id": "07105001",
    "id_station": "07105001",
    "id_omm": "07011",
    "name": "ISSANLAS",
    "nom_usuel": "ISSANLAS",
    "lat": 44.773167,
    "lon": 3.981667,
    "elev": 1215.0,
    "altitude": 1215.0,
    "date_ouverture": "1950-01-01",
    "pack": "ETENDU",
    "provider": "METEOFRANCE",
    "source": "Meteo-France DPObs /liste-stations",
    "raw": {
      "Id_station": "07105001",
      "Id_omm": "07011",
      "Nom_usuel": "ISSANLAS",
      "Latitude": "44.773167",
      "Longitude": "3.981667",
      "Altitude": "1215",
      "Date_ouverture": "1950-01-01",
      "Pack": "ETENDU"
    }
  },
  {
    "id": "07105003",
    "id_station": "07105003",
    "id_omm": "",
    "name": "ISSANLAS_SAPC",
    "nom_usuel": "ISSANLAS_SAPC",
    "lat": 44.7555,
    "lon": 3.975333,
    "elev": 1264.0,
    "altitude": 1264.0,
    "date_ouverture": "2004-03-01",
    "pack": "ETENDU",
    "provider": "METEOFRANCE",
    "source": "Meteo-France DPObs /liste-stations",
    "raw": {
      "Id_station": "07105003",
      "Id_omm": "",
      "Nom_usuel": "ISSANLAS_SAPC",
      "Latitude": "44.755500",
      "Longitude": "3.975333",
      "Altitude": "1264",
      "Date_ouverture": "2004-03-01",
      "Pack": "ETENDU"
    }
  },
  {
    "id": "07117002",
    "id_station": "07117002",
    "id_omm": "",
    "name": "LABLACHERE",
    "nom_usuel": "LABLACHERE",
    "lat": 44.480833,
    "lon": 4.208333,
    "elev": 295.0,
    "altitude": 295.0,
    "date_ouverture": "1958-03-01",
    "pack": "ETENDU",
    "provider": "METEOFRANCE",
    "source": "Meteo-France DPObs /liste-stations",
    "raw": {
      "Id_station": "07117002",
      "Id_omm": "",
      "Nom_usuel": "LABLACHERE",
      "Latitude": "44.480833",
      "Longitude": "4.208333",
      "Altitude": "295",
      "Date_ouverture": "1958-03-01",
      "Pack": "ETENDU"
    }
  },
  {
    "id": "07128001",
    "id_station": "07128001",
    "id_omm": "",
    "name": "LALOUVESC",
    "nom_usuel": "LALOUVESC",
    "lat": 45.117833,
    "lon": 4.535,
    "elev": 1090.0,
    "altitude": 1090.0,
    "date_ouverture": "1956-07-01",
    "pack": "ETENDU",
    "provider": "METEOFRANCE",
    "source": "Meteo-France DPObs /liste-stations",
    "raw": {
      "Id_station": "07128001",
      "Id_omm": "",
      "Nom_usuel": "LALOUVESC",
      "Latitude": "45.117833",
      "Longitude": "4.535000",
      "Altitude": "1090",
      "Date_ouverture": "1956-07-01",
      "Pack": "ETENDU"
    }
  },
  {
    "id": "07131001",
    "id_station": "07131001",
    "id_omm": "07570",
    "name": "LANAS SYN",
    "nom_usuel": "LANAS SYN",
    "lat": 44.537167,
    "lon": 4.368167,
    "elev": 265.0,
    "altitude": 265.0,
    "date_ouverture": "1990-11-01",
    "pack": "RADOME",
    "provider": "METEOFRANCE",
    "source": "Meteo-France DPObs /liste-stations",
    "raw": {
      "Id_station": "07131001",
      "Id_omm": "07570",
      "Nom_usuel": "LANAS SYN",
      "Latitude": "44.537167",
      "Longitude": "4.368167",
      "Altitude": "265",
      "Date_ouverture": "1990-11-01",
      "Pack": "RADOME"
    }
  },
  {
    "id": "07153001",
    "id_station": "07153001",
    "id_omm": "07013",
    "name": "MAYRES",
    "nom_usuel": "MAYRES",
    "lat": 44.667167,
    "lon": 4.113,
    "elev": 579.0,
    "altitude": 579.0,
    "date_ouverture": "1900-01-01",
    "pack": "ETENDU",
    "provider": "METEOFRANCE",
    "source": "Meteo-France DPObs /liste-stations",
    "raw": {
      "Id_station": "07153001",
      "Id_omm": "07013",
      "Nom_usuel": "MAYRES",
      "Latitude": "44.667167",
      "Longitude": "4.113000",
      "Altitude": "579",
      "Date_ouverture": "1900-01-01",
      "Pack": "ETENDU"
    }
  },
  {
    "id": "07154005",
    "id_station": "07154005",
    "id_omm": "",
    "name": "MAZAN ABBAYE RAD",
    "nom_usuel": "MAZAN ABBAYE RAD",
    "lat": 44.733833,
    "lon": 4.083833,
    "elev": 1240.0,
    "altitude": 1240.0,
    "date_ouverture": "2003-05-01",
    "pack": "RADOME",
    "provider": "METEOFRANCE",
    "source": "Meteo-France DPObs /liste-stations",
    "raw": {
      "Id_station": "07154005",
      "Id_omm": "",
      "Nom_usuel": "MAZAN ABBAYE RAD",
      "Latitude": "44.733833",
      "Longitude": "4.083833",
      "Altitude": "1240",
      "Date_ouverture": "2003-05-01",
      "Pack": "RADOME"
    }
  },
  {
    "id": "07159001",
    "id_station": "07159001",
    "id_omm": "",
    "name": "MIRABEL SA",
    "nom_usuel": "MIRABEL SA",
    "lat": 44.5815,
    "lon": 4.497333,
    "elev": 275.0,
    "altitude": 275.0,
    "date_ouverture": "1929-01-01",
    "pack": "ETENDU",
    "provider": "METEOFRANCE",
    "source": "Meteo-France DPObs /liste-stations",
    "raw": {
      "Id_station": "07159001",
      "Id_omm": "",
      "Nom_usuel": "MIRABEL SA",
      "Latitude": "44.581500",
      "Longitude": "4.497333",
      "Altitude": "275",
      "Date_ouverture": "1929-01-01",
      "Pack": "ETENDU"
    }
  },
  {
    "id": "07161001",
    "id_station": "07161001",
    "id_omm": "",
    "name": "MONTPEZAT SA",
    "nom_usuel": "MONTPEZAT SA",
    "lat": 44.715667,
    "lon": 4.207,
    "elev": 602.0,
    "altitude": 602.0,
    "date_ouverture": "1900-01-01",
    "pack": "ETENDU",
    "provider": "METEOFRANCE",
    "source": "Meteo-France DPObs /liste-stations",
    "raw": {
      "Id_station": "07161001",
      "Id_omm": "",
      "Nom_usuel": "MONTPEZAT SA",
      "Latitude": "44.715667",
      "Longitude": "4.207000",
      "Altitude": "602",
      "Date_ouverture": "1900-01-01",
      "Pack": "ETENDU"
    }
  },
  {
    "id": "07168001",
    "id_station": "07168001",
    "id_omm": "",
    "name": "ORGNAC AVEN",
    "nom_usuel": "ORGNAC AVEN",
    "lat": 44.288333,
    "lon": 4.421667,
    "elev": 230.0,
    "altitude": 230.0,
    "date_ouverture": "1970-07-01",
    "pack": "ETENDU",
    "provider": "METEOFRANCE",
    "source": "Meteo-France DPObs /liste-stations",
    "raw": {
      "Id_station": "07168001",
      "Id_omm": "",
      "Nom_usuel": "ORGNAC AVEN",
      "Latitude": "44.288333",
      "Longitude": "4.421667",
      "Altitude": "230",
      "Date_ouverture": "1970-07-01",
      "Pack": "ETENDU"
    }
  },